Facility Number,Facility Name,Common Name,Registration Status,Created At,Updated At,Zone,Region,District,Council,Ward,Village/Street,Facility Type,Operating Status,Ownership,Registration Number,CTC Number,Latitude,Longitude,Date Opened,National Grid,Generator,Solar Panels,No Electricity,Other
113310-7,2001 GEM PLUS,,Registered,2019-03-27T18:14:11.000Z,2019-05-28T17:32:43.000Z,Lake Zone,Mwanza,Nyamagana,Nyamagana MC,Butimba,Not set,Health Labs - Level IA2 (Dispensary Laboratory),Operating,Private - For Profit,PHL-C/MWZ/AUT/06,,-2.563525,32.912659,,0,0,0,0,0
100017-3,202 KJ,,,2013-08-20T10:23:40.000Z,2018-08-20T11:36:15.000Z,Central Zone,Not set,Not set,Not set,Not set,Not set,Dispensary,Closed,Public - Military,,,-5.05716,32.82869,,0,0,0,0,0
108548-9,23kj,Jeshini / JWTZ,,2014-03-13T11:46:08.000Z,2019-05-19T01:52:06.000Z,Lake Zone,Kagera,Biharamulo,Biharamulo DC,Biharamulo Mjini,Biharamulo Mjini,Dispensary,Operating,Public - Military,,,-2.63157,31.33744,,0,0,0,0,0
110967-7,24kj,24kj,Registered,2015-10-07T06:45:39.000Z,2018-07-02T09:12:10.000Z,Western Zone,Kigoma,Kigoma,Kigoma Ujiji MC,Mwanga Kusini,Vamiya,Dispensary,Operating,Public - Military,,,-4.89334,29.63601,,0,0,0,0,0
100019-9,511KJ Gongo la Mboto,Hospitali ya jeshi,Registered,2013-08-20T10:23:40.000Z,2019-11-07T18:44:21.000Z,Eastern Zone,Dar es Salaam,Ilala,Ilala MC,Gongo la Mboto,G/Mboto,Dispensary,Operating,Public - Military,,,-6.88878,39.15133,15/07/1992,1,0,0,0,0
100020-7,512KJ,MTC,Registered,2013-08-20T10:23:40.000Z,2019-08-27T07:27:33.000Z,Lake Zone,Mwanza,Nyamagana,Nyamagana MC,Butimba,Iseni,Dispensary,Operating,Public - Military,,,-2.58227,32.91911,,1,0,0,0,0
100021-5,514KJ,Zahanati ya Jeshi,Registered,2013-08-20T10:23:40.000Z,2019-11-15T11:41:45.000Z,Southern Highlands Zone,Njombe,Njombe,Makambako TC,Ubena,Ubena,Dispensary,Operating,Public - Military,,,-8.83274,34.839154,01/07/1973,0,0,0,0,0
100542-0,821KJ,Zahanati ya Bulombora,Registered,2013-08-20T10:25:27.000Z,2015-12-10T08:58:11.000Z,Western Zone,Kigoma,Kigoma,Kigoma DC,Mwamgongo,Mwamgongo,Dispensary,Operating,Public - Military,,,-5.034967,29.789642,,0,0,0,0,0
110841-4,909 Dental Centre,909 Dental,Registered,2015-07-29T13:05:38.000Z,2017-02-28T11:38:42.000Z,Eastern Zone,Dar es Salaam,Ilala,Ilala MC,Upanga Magharibi,Mfaume,Clinic - Dental Clinic,Operating,Private - For Profit,72422,,-6.809073,39.27917,02/12/2014,1,1,0,0,0
100024-9,A and A,Kwa Kasela,Registered,2013-08-20T10:23:41.000Z,2019-05-29T11:29:38.000Z,Southern Highlands Zone,Mbeya,Mbarali,Mbarali DC,Ubaruku,Utyego,Dispensary,Operating,Private - For Profit,128204,,-8.67632,34.304,24/01/2002,1,0,0,0,1
100025-6,AA&B,AAB&R,Not Registered,2013-08-20T10:23:41.000Z,2019-11-14T17:24:42.000Z,Eastern Zone,Dar es Salaam,Ilala,Ilala MC,Upanga Mashariki,Kibasila,Clinic - Diagnostic Centre,Operating,Private - For Profit,72368,,-6.800753,39.27466,19/10/2009,1,0,0,0,0
110968-5,AAR,AAR POLLY-CLINIC,Registered,2015-12-17T08:07:41.000Z,2018-10-17T05:45:54.000Z,Lake Zone,Mwanza,Nyamagana,Nyamagana MC,Mbugani,Mbugani 'B',Dispensary,Operating,Private - For Profit,,,-2.522568,32.911583,,0,0,0,0,0
100030-6,AAR,AAR,Registered,2013-08-20T10:23:42.000Z,2019-02-28T12:58:33.000Z,Eastern Zone,Dar es Salaam,Ilala,Ilala MC,Kisutu,Kisutu,Clinic - Polyclinic,Operating,Private - NGOs,72329,,-6.81643,39.2856,19/08/2009,1,1,0,0,0
100031-4,AAR,AAR Chato,Registered,2013-08-20T10:23:42.000Z,2019-02-28T12:57:25.000Z,Eastern Zone,Dar es Salaam,Kinondoni,Kinondoni MC,Mikocheni,Regent Estate,Clinic - Polyclinic,Operating,Private - For Profit,71275,,-6.77842,39.25741,,1,1,0,0,0
100029-8,AAR,AAR,Registered,2013-08-20T10:23:42.000Z,2019-05-23T13:52:35.000Z,Northern Zone,Arusha,Arusha,Arusha CC,Sekei,Mahakama,Clinic - Polyclinic,Operating,Private - For Profit,23235,,-3.37317,36.7018,05/11/2018,1,1,0,0,0
109574-4,AAR KIA,,Registered,2015-03-27T11:26:18.000Z,2019-05-23T09:55:23.000Z,Northern Zone,Kilimanjaro,Hai,Hai DC,KIA,Kia,Dispensary,Operating,Private - For Profit,35221,,-3.44194,37.06679,,1,0,0,0,0
110844-8,AAR Mbagala,AAR Mbagala Clinic,Registered,2015-07-29T13:26:57.000Z,2019-08-06T08:04:59.000Z,Eastern Zone,Dar es Salaam,Temeke,Temeke MC,Mbagala,Moringe,Clinic - Polyclinic,Operating,Private - For Profit,73364,,-6.91034,39.26977,01/06/2015,1,0,0,0,0
108660-2,AAR Sinza,AAR Sinza,Registered,2014-07-18T17:17:36.000Z,2019-02-28T13:10:34.000Z,Eastern Zone,Dar es Salaam,Ubungo,Ubungo MC,Sinza,Sinza C,Clinic - Polyclinic,Operating,Private - For Profit,,,-6.788666,39.221832,03/06/2013,1,1,0,0,0
111438-8,AAR Tabata,AAR Tabata,Registered,2016-08-11T12:18:39.000Z,2019-11-14T12:45:03.000Z,Eastern Zone,Dar es Salaam,Ilala,Ilala MC,Tabata,Tabata,Clinic - Polyclinic,Operating,Private - For Profit,,,-6.84306,39.20898,01/05/2015,1,1,0,0,0
108681-8,AAR Tegeta,AAR Tegeta,Registered,2014-10-07T10:41:27.000Z,2019-02-28T14:03:21.000Z,Eastern Zone,Dar es Salaam,Kinondoni,Kinondoni MC,Wazo,Wazo,Clinic - Polyclinic,Operating,Private - For Profit,71438,,-6.65972,39.18128,17/01/2014,1,0,0,0,0
109828-4,Abbas Medical Centre,Dr. Abbas,Registered,2015-03-30T06:06:50.000Z,2016-04-22T18:14:27.000Z,Eastern Zone,Dar es Salaam,Ilala,Ilala MC,Jangwani,Mtambani,Dispensary,Operating,Private - For Profit,72016,,-6.81513,39.27406,18/07/1994,1,1,0,0,0
112493-2,Abbys,Abbys,Registered,2019-02-04T15:46:33.000Z,2019-11-14T13:25:34.000Z,Southern Highlands Zone,Katavi,Mpanda,Mpanda MC,Kashaulili,Kashaulili,Health Center,Operating,Private - For Profit,15121,,-6.34429,31.07279,06/05/2019,0,1,0,0,1
112327-2,Abduelrazaq Mohamed Saleh,Abduelrazaq Mohamed Saleh,Registered,2018-08-14T13:29:23.000Z,2019-05-28T15:22:16.000Z,Western Zone,Kigoma,Kigoma,Kigoma Ujiji MC,Gungu,Masanga,Dispensary,Operating,Private - Faith based organization (FBO) - Other Denominations,,,-4.85826,29.65142,20/06/2018,0,1,0,0,0
113780-1,Abiga,Abiga,Registered,2019-09-10T05:48:47.000Z,2020-03-09T16:52:53.000Z,Lake Zone,Mwanza,Misungwi,Misungwi DC,Misungwi,Not set,Maternity Home,Operating,Private - For Profit,,,-2.837972,33.089104,09/06/2019,1,0,0,0,0
110005-6,Access,Kwa Mathias,Registered,2015-05-25T11:07:04.000Z,2018-08-03T06:37:00.000Z,Eastern Zone,Pwani,Kibaha,Kibaha TC,Mkuza,Mkuza,Dispensary,Closed,Private - For Profit,62215,,-6.75485,38.9324,,1,0,0,0,0
112702-6,Access Medical & Diagnostic,72533,Registered,2019-03-05T05:50:10.000Z,2019-11-14T17:27:16.000Z,Eastern Zone,Dar es Salaam,Ilala,Ilala MC,Upanga Mashariki,Kitonga,Clinic - Other Clinic,Operating,Private - For Profit,,,-6.80312,39.27877,02/07/2018,1,0,0,0,0
110779-6,Access Medical and Dialysis Centre,Access Medical and Dialysis Centre,Registered,2015-07-17T09:58:50.000Z,2016-04-21T09:40:33.000Z,Eastern Zone,Dar es Salaam,Kinondoni,Kinondoni MC,Msasani,Bonde la Mpunga,Clinic - Other Clinic,Operating,Private - For Profit,71411,,-6.76675,39.26138,,1,1,0,0,0
111629-2,ACDK,DMK Eye Clinic,Registered,2017-01-18T06:07:22.000Z,2017-05-22T10:54:34.000Z,Northern Zone,Manyara,Kiteto,Kiteto DC,Partimbo,Partimbo,Clinic - Eye Clinic,Operating,Private - Faith based organization (FBO),,,-5.32693,36.5677,30/11/2016,1,0,0,0,0
Not set,Achwi,Achwi,Not Registered,2020-02-05T12:46:04.000Z,2020-02-05T12:46:04.000Z,Central Zone,Dodoma,Kondoa,Kondoa TC,Bolisa,Not set,Dispensary,Pending Operation - Under Construction,Public - LGA,,,-4.77252,35.78413,,0,0,0,0,0
113997-1,Aclane,Kwa Mushi,Registered,2020-01-31T10:22:42.000Z,2020-01-31T10:22:42.000Z,Eastern Zone,Morogoro,Kilombero,Kilombero DC,Mlimba,Mlimba 'A',Dispensary,Operating,Private - For Profit,53227,,-8.77998,35.81071,27/01/2020,1,1,0,0,0
112995-6,Adefa Optical Centre,Adefa Optical Centre,Registered,2019-03-10T09:14:29.000Z,2019-09-02T11:08:18.000Z,Southern Zone,Mtwara,Mtwara,Mtwara MC,Shangani,Ligula umoja,Clinic - Optometry Clinic,Operating,Private - For Profit,6,,-10.27169,40.18213,31/05/2012,1,0,0,0,0
111902-3,Adricardo,Adrikalo,Registered,2017-10-31T05:47:21.000Z,2019-11-14T12:45:58.000Z,Eastern Zone,Dar es Salaam,Ilala,Ilala MC,Upanga Mashariki,Kitonga,Clinic - Specialized Polyclinic,Operating,Private - For Profit,72470,,-6.80516,39.27842,01/08/2017,1,1,0,0,0
112008-8,Advert,advent,Registered,2018-01-16T19:48:00.000Z,2020-02-26T06:49:42.000Z,Southern Highlands Zone,Katavi,Mpanda,Mpanda MC,Kashaulili,Kashaulili,Health Labs - Level IA2 (Dispensary Laboratory),Operating,Private - For Profit,PHL-C/KTV/AUT/01,,-6.34682,31.07613,01/07/2018,0,1,0,0,0
112426-2,Aeromeda,Aeromeda super specialized clinic,Registered,2018-12-13T10:11:03.000Z,2019-08-14T07:51:19.000Z,Eastern Zone,Dar es Salaam,Ilala,Ilala MC,Ilala,Shariff Shamba,Clinic - Specialized Polyclinic,Operating,Private - For Profit,72528,,-6.828327,39.255942,04/09/2018,1,1,0,0,0
110995-8,Afana Eye,Afana,Registration Pending Certification,2015-10-15T08:02:18.000Z,2019-05-29T09:38:43.000Z,Southern Highlands Zone,Mbeya,Mbeya,Mbeya CC,Sisimba,Tanesco,Clinic,Operating,Private - For Profit,,,-8.89592,33.44146,01/08/2013,1,0,0,0,0
113203-4,Afrann,,Registered,2019-03-27T11:02:50.000Z,2019-06-03T17:40:56.000Z,Western Zone,Tabora,Nzega,Nzega DC,Nata,Nata,Health Labs - Level IA2 (Dispensary Laboratory),Operating,Private - For Profit,PHL-C/TAB/AUT/020,,-4.030728,33.133757,,0,0,0,0,0
105282-8,Africa Amini Momella,Momela Olkungwado,Registered,2013-08-20T10:42:54.000Z,2019-06-01T11:41:57.000Z,Northern Zone,Arusha,Arumeru,Meru DC,Ngarenanyuki,Olkong'wado,Health Center,Operating,Public - LGA,,02-02-0118,-3.213285,36.861852,22/05/2010,1,1,1,0,0
100034-8,Africa Sana Dental,Africa Sana,,2013-08-20T10:23:43.000Z,2017-02-27T10:27:40.000Z,Eastern Zone,Dar es Salaam,Kinondoni,Kinondoni MC,Kijitonyama,Mwenge,Clinic - Dental Clinic,Operating,Private - For Profit,,,-6.773807,39.233285,,1,0,0,0,0
112096-3,Africana Eye Centre,,Registered,2018-02-06T06:18:02.000Z,2019-02-27T08:23:56.000Z,Eastern Zone,Dar es Salaam,Temeke,Temeke MC,Miburani,Wailes,Clinic - Optometry Clinic,Operating,Private - For Profit,158,,-6.86653,39.27168,24/10/2017,1,0,0,0,0
100035-5,Afya,Afya,Registered,2013-08-20T10:23:43.000Z,2019-05-23T16:50:50.000Z,Southern Highlands Zone,Katavi,Mpanda,Mpanda MC,Makanyagio,Makanyagio,Dispensary,Operating,Private - For Profit,151206,23-02-0102,-6.340138,31.068905,21/05/1999,1,0,0,0,1
100036-3,Afya Bora,Afya Bora,Registered,2013-08-20T10:23:43.000Z,2019-11-14T17:28:52.000Z,Eastern Zone,Dar es Salaam,Ilala,Ilala MC,Vingunguti,Miembeni,Dispensary,Operating,Private - For Profit,72263,,-6.84474,39.2261,09/02/2004,1,0,0,0,0
100037-1,Afya Care,,,2013-08-20T10:23:44.000Z,2015-07-11T07:16:28.000Z,Eastern Zone,Dar es Salaam,Temeke,Temeke MC,Kiburugwa,Kwanyoka,Dispensary,Closed,Private - For Profit,,,-6.91265,39.2547,,0,0,0,0,0
111888-4,Afya care charitable,Afya care mbezi kwa msuguli,Registered,2017-10-17T12:27:42.000Z,2019-08-03T16:19:35.000Z,Eastern Zone,Dar es Salaam,Ubungo,Ubungo MC,Msigani,Msigani,Dispensary,Operating,Private - For Profit,,,-6.79672,39.12846,30/10/2008,1,1,0,0,0
100039-7,Afya Care Charitable,Tausi,Registered,2013-08-20T10:23:44.000Z,2019-08-22T12:59:48.000Z,Eastern Zone,Dar es Salaam,Ilala,Ilala MC,Kimanga,Kisukuru,Dispensary,Closed,Private - For Profit,72290,,-6.827736,39.19782,,1,0,0,0,0
100038-9,Afya Care charitable,Afya Care,Registered,2016-01-21T16:09:29.000Z,2019-08-22T14:02:07.000Z,Eastern Zone,Dar es Salaam,Ilala,Ilala MC,Kipawa,Karakata,Dispensary,Operating,Private - For Profit,72395,,-6.85834,39.20393,07/07/2012,1,0,0,0,0
110612-9,Afya care Sinza,afya,Registered,2015-07-10T06:57:34.000Z,2019-08-23T10:30:47.000Z,Eastern Zone,Dar es Salaam,Ubungo,Ubungo MC,Sinza,Sinza B,Dispensary,Operating,Private - For Profit,,,-6.78639,39.22538,14/03/2014,1,1,0,0,0
112054-2,Afya check superspecialized kidney and diagnostic and dialysis,Afya Clinic,Registered,2018-01-23T13:17:45.000Z,2019-05-29T09:47:53.000Z,Southern Highlands Zone,Mbeya,Mbeya,Mbeya CC,Ruanda,Kabwe,Clinic - Other Clinic,Operating,Private - For Profit,127240,,-8.91691,33.46545,01/01/2016,1,0,0,0,0
100040-5,Afya Head Quarters,,,2013-08-20T10:23:44.000Z,2015-08-26T11:35:20.000Z,Eastern Zone,Dar es Salaam,Ilala,Ilala MC,Kivukoni,Kivukoni,Dispensary,Closed,Public - LGA,,,-6.81462,39.29296,,0,0,0,0,0
111552-6,Afya Max Polyclinic and Diagnostic Centre,Afyamax Clinics,Registered,2016-10-19T06:17:18.000Z,2019-05-23T14:35:39.000Z,Northern Zone,Arusha,Arusha,Arusha CC,Ngarenaro,Kambi ya Fisi,Clinic - Polyclinic,Operating,Private - For Profit,23250,,-3.365947,36.675616,10/10/2016,1,0,0,0,0
111873-6,Afya Medicare .,Afya Medicare Health Centre,Registered,2017-10-05T07:53:45.000Z,2019-05-03T06:56:43.000Z,Southern Highlands Zone,Njombe,Njombe,Makambako TC,Ubena,Maguvani,Health Center,Operating,Private - For Profit,113225,,-8.8415,34.83342,01/06/2017,1,0,0,0,0
110425-6,Afya Specialized,,Registered,2015-07-03T10:50:41.000Z,2019-10-14T06:06:10.000Z,Eastern Zone,Morogoro,Morogoro,Morogoro MC,Kingo,Kingo,Clinic - Other Clinic,Operating,Private - For Profit,,,-6.82778,37.6674,,0,0,0,0,0
111946-0,Afyabora,AFYA BORA,Registered,2017-11-29T12:39:06.000Z,2018-04-03T12:13:09.000Z,Lake Zone,Kagera,Bukoba,Bukoba MC,Bilele,Jamhuri,Dispensary,Closed (Temporary),Private - For Profit,186206,,-1.33157,31.81111,15/11/2016,1,0,1,0,0
100042-1,Afyayako,Afya yako prinmat,,2013-08-20T10:23:45.000Z,2019-08-14T14:18:06.000Z,Southern Highlands Zone,Rukwa,Sumbawanga,Sumbawanga MC,Mazwi,NHC,Maternity Home,Operating,Private - For Profit,107,,-7.947496,31.617692,,0,0,0,0,0
110621-0,Aga Khan,Aga khan,,2015-07-10T08:35:15.000Z,2016-04-17T18:54:33.000Z,Eastern Zone,Dar es Salaam,Kinondoni,Kinondoni MC,Kawe,Mbezi beach A,Health Center,Operating,Private - For Profit,,,-6.725548,39.214022,,0,0,0,0,0
Not set,Aga Khan,Aga Khan Mikocheni,Registered,2016-10-17T08:39:56.000Z,2019-02-27T13:07:26.000Z,Eastern Zone,Dar es Salaam,Kinondoni,Kinondoni MC,Bunju,Bunju A,Clinic - Other Clinic,Pending Operation - Construction Complete,Private - For Profit,71483,,-6.74966,39.24036,,0,0,0,0,0
111531-0,Aga Khan,Aga Khan Masaki,Registered,2016-10-17T08:40:26.000Z,2017-11-16T10:38:49.000Z,Eastern Zone,Dar es Salaam,Kinondoni,Kinondoni MC,Msasani,Masaki,Clinic,Operating,Private - For Profit,Hc 213/453/01/835,,-6.74668,39.2762,11/05/2016,1,0,0,0,0
113429-5,Aga Khan,Aga Khan,Registered,2019-03-29T11:10:47.000Z,2019-03-29T13:46:49.000Z,Lake Zone,Kagera,Bukoba,Bukoba MC,Miembeni,Jamhuri,Clinic - Polyclinic,Operating,Private - NGOs,,,-1.33076,31.81223,11/10/2018,1,1,0,0,0
100046-2,Aga Khan,Aga Khan,Registered,2013-08-20T10:23:45.000Z,2017-05-24T12:46:11.000Z,Central Zone,Dodoma,Dodoma,Dodoma MC,Madukani,Jamali,Health Center,Operating,Private - Faith based organization (FBO),14003,,-6.180008,35.746365,,1,1,0,0,0
100044-7,Aga Khan,agakhan,Registered,2013-08-20T10:23:45.000Z,2019-05-16T07:52:24.000Z,Eastern Zone,Morogoro,Morogoro,Morogoro MC,Mji Mkuu,Boma,Clinic - Polyclinic,Operating,Private - Faith based organization (FBO) - Other Denominations,55201,05-01-0115,-6.82926,37.66494,,1,1,0,0,0
108577-8,Aga Khan,AGA KHAN HEALTH CENTRE,Registered,2014-04-03T07:09:16.000Z,2019-05-27T21:29:06.000Z,Northern Zone,Arusha,Arusha,Arusha CC,Kati,Pangani,Health Center,Operating,Private - For Profit,23236,,-3.37077,36.68944,07/01/2013,1,1,0,0,0
112974-1,Aga Khan,,Registered,2019-03-07T18:53:04.000Z,2019-05-30T07:52:42.000Z,Western Zone,Tabora,Tabora,Tabora MC,Kanyenye,Msikitini,Clinic - Polyclinic,Operating,Private - For Profit,145218,,-5.018628,32.811134,21/05/2018,0,0,0,0,0
112332-2,Aga Khan,Aga Khan Health Service Tanzania,Registered,2018-08-14T13:44:10.000Z,2019-07-25T10:07:52.000Z,Eastern Zone,Dar es Salaam,Ubungo,Ubungo MC,Saranga,Matangini,Clinic - Other Clinic,Operating,Private - Faith based organization (FBO),71531,,-6.79144,39.16736,11/01/2018,1,1,0,0,0
100047-0,Aga Khan,Agakhan health service Tanzania,Registered,2013-08-20T10:23:46.000Z,2019-11-14T17:32:03.000Z,Eastern Zone,Dar es Salaam,Ilala,Ilala MC,Kivukoni,Sea View,Hospital - Hospital at Zonal Level,Operating,Private - Faith based organization (FBO),72001,,-6.842641,39.185461,15/01/1980,1,1,0,0,0
100045-4,Aga Khan,Agakhan Medical centre,Registered,2013-08-20T10:23:45.000Z,2019-11-15T06:15:25.000Z,Southern Highlands Zone,Iringa,Iringa,Iringa MC,Kitanzini,Maweni,Clinic - Polyclinic,Operating,Private - For Profit,116002,,-7.78328,35.69643,28/03/2019,1,0,0,0,0
114022-7,Aga Khan,Aga Khan,Registered,2020-02-05T14:09:28.000Z,2020-02-05T14:09:28.000Z,Eastern Zone,Dar es Salaam,Temeke,Temeke MC,Buza,Buza,Clinic - Super specialized Polyclinic,Operating,Private - For Profit,73429,,-6.89173,39.22363,07/10/2019,1,0,0,0,0
111793-6,Aga Khan Tabata,Agakhan Health Services Tanzania,Registered,2017-07-12T05:57:28.000Z,2019-03-01T09:13:38.000Z,Eastern Zone,Dar es Salaam,Ilala,Ilala MC,Segerea,Migombani,Clinic - Polyclinic,Operating,Private - Faith based organization (FBO),72456,,-6.84264,39.18546,19/10/2017,1,1,0,0,0
111808-2,Aga Khan Mianzini,,Registered,2017-07-21T14:24:35.000Z,2019-08-06T08:07:45.000Z,Eastern Zone,Dar es Salaam,Temeke,Temeke MC,Mianzini,Majimatitu,Dispensary,Operating,Private - For Profit,73396,,-6.91529,39.27254,,1,0,0,0,0
113635-7,Aga khan Polyclinic Bunda,Agakhan,Registered,2019-05-23T18:20:07.000Z,2019-05-23T18:20:07.000Z,Lake Zone,Mara,Bunda,Bunda TC,Kabarimu,Saranga,Clinic - Polyclinic,Operating,Private - Faith based organization (FBO),,,-2.02327,33.87325,01/03/2019,1,1,0,0,0
111422-2,Aga Khan Tandika,,Registered,2016-08-11T12:25:07.000Z,2019-08-06T08:20:58.000Z,Eastern Zone,Dar es Salaam,Temeke,Temeke MC,Tandika,Tamla,Dispensary,Operating,Private - For Profit,,,-6.868072,39.259839,,0,0,0,0,0
112229-0,Aga Khan Ukonga,Agakhan,Registered,2018-05-14T10:10:05.000Z,2019-08-14T07:10:57.000Z,Eastern Zone,Dar es Salaam,Ilala,Ilala MC,Kipawa,Kipunguni,Clinic - Polyclinic,Operating,Private - Faith based organization (FBO),,,-6.86637,39.19892,01/08/2017,1,1,0,0,0
111929-6,Aga Khani Medical mikocheni,Aga Khani Medical Clinic Mikocheni,Registered,2017-11-24T14:54:25.000Z,2019-08-06T11:22:59.000Z,Eastern Zone,Dar es Salaam,Kinondoni,Kinondoni MC,Mikocheni,Regent Estate,Clinic - Medical Clinic,Operating,Private - For Profit,,,-6.7467,39.276,11/05/2016,1,1,0,0,0
111907-2,Agakhan,Aga khan,Registered,2017-11-15T18:10:10.000Z,2019-03-01T10:16:18.000Z,Eastern Zone,Dar es Salaam,Kigamboni,Kigamboni MC,Kibada,Kifurukwe,Clinic - Polyclinic,Operating,Private - For Profit,73388,,-6.87674,39.34119,18/10/2017,1,1,0,0,0
112162-3,Agakhan poly,Agakhan poly,Registered,2018-04-03T07:04:20.000Z,2019-07-02T13:16:39.000Z,Western Zone,Shinyanga,Kahama,Kahama TC,Kahama Mjini,Igalilimi,Clinic - Polyclinic,Operating,Private - For Profit,,,-3.827406,32.59816,08/05/2017,1,1,0,0,0
111687-0,Agano .,Agano Dispensary,Registered,2017-03-21T08:11:05.000Z,2018-09-20T13:08:42.000Z,Southern Highlands Zone,Njombe,Njombe,Makambako TC,Ubena,Not set,Dispensary,Closed,Private - For Profit,,,-8.8456,34.82562,09/09/2016,1,0,0,0,0
100048-8,Agape,Agape,,2013-08-20T10:23:46.000Z,2016-02-10T20:02:48.000Z,Northern Zone,Manyara,Simanjiro,Simanjiro DC,Mrerani,Mrerani,Dispensary,Closed,Private,,,-3.55124,36.9809,,0,0,0,0,0
113321-4,Agape,,Registered,2019-03-27T17:59:04.000Z,2019-05-29T13:56:57.000Z,Lake Zone,Mwanza,Ilemela,Ilemela MC,Nyamanoro,Not set,Health Labs - Level IA2 (Dispensary Laboratory),Operating,Private - For Profit,PHL-C/MWZ/AUT/018,,-2.491754,32.905909,,0,0,0,0,0
112276-1,Agape,Agape,Registered,2018-06-25T11:46:02.000Z,2019-06-14T08:11:15.000Z,Northern Zone,Arusha,Karatu,Karatu DC,Karatu,Karatu Mjini,Dispensary,Operating,Private - Faith based organization (FBO),,,-3.32022,35.4045,01/01/2018,1,0,1,0,0
111982-5,Agape,,Registered,2018-01-16T15:41:28.000Z,2019-06-21T07:00:11.000Z,Northern Zone,Arusha,Arusha,Arusha CC,Sombetini,Kirika B,Health Labs - Level IA2 (Dispensary Laboratory),Operating,Private - For Profit,PHL-C/AR/AUT/15,,-3.396758,36.658008,,0,0,0,0,0
112674-7,Agape,Hamisi Kindamba,Registered,2019-03-02T02:55:39.000Z,2019-07-18T09:24:30.000Z,Eastern Zone,Morogoro,Morogoro,Morogoro MC,Mwembesongo,Not set,Health Labs - Level III single purpose Health Laboratory,Operating,Private - For Profit,Phl-C/Mor/Aut/022,,-6.81366,37.669422,,0,0,0,0,0
100050-4,Agape,,Registered,2013-08-20T10:23:46.000Z,2019-08-07T10:00:52.000Z,Southern Zone,Lindi,Liwale,Liwale DC,Liwale Mjini,Not set,Dispensary,Operating,Private - For Profit,,,-9.802,37.93013,18/06/2013,1,0,1,0,0
111570-8,Agape,King'anda,Registered,2016-11-02T11:38:48.000Z,2019-09-11T09:18:03.000Z,Eastern Zone,Pwani,Kisarawe,Kisarawe DC,Kiluvya,Kiluvya 'B',Health Labs - Level IA2 (Dispensary Laboratory),Operating,Private - For Profit,PHL-C/PWN/AUT/015,,-6.80108,39.02182,01/08/2015,1,0,0,0,0
113138-2,Agape,Agape Dispensary,Registered,2019-03-08T19:02:17.000Z,2019-11-27T12:58:29.000Z,Eastern Zone,Morogoro,Kilosa,Kilosa DC,Dumila,Dumila,Dispensary,Operating,Private - For Profit,,,-6.387755,37.339629,01/07/2018,1,1,0,0,0
100053-8,Agha Khan,Aga Khan,Registered,2013-08-20T10:23:47.000Z,2019-07-26T11:06:55.000Z,Southern Highlands Zone,Mbeya,Mbeya,Mbeya CC,Sisimba,Soko kuu,Health Center,Operating,Private - Faith based organization (FBO),127003,12-07-0132,-8.89312,33.44157,,1,0,0,0,0
112683-8,AGM,,Registered,2019-03-02T03:22:12.000Z,2019-07-25T09:04:26.000Z,Eastern Zone,Dar es Salaam,Temeke,Temeke MC,Miburani,Wailes,Clinic - Other Clinic,Operating,Private - For Profit,,,-6.86391,39.26955,10/10/2018,0,0,0,0,0
100055-3,Ahmadiyya,,Registered,2013-08-20T10:23:47.000Z,2019-03-18T12:39:57.000Z,Eastern Zone,Morogoro,Morogoro,Morogoro MC,Kihonda,Not set,Dispensary,Closed,Private - Faith based organization (FBO),,,-6.78845,37.6478,,0,0,0,0,0
100056-1,Ahmadiyya,Ahmadiyya,Registered,2013-08-20T10:23:48.000Z,2019-05-16T07:56:44.000Z,Eastern Zone,Morogoro,Morogoro,Morogoro MC,Sabasaba,Makongoro,Health Center,Operating,Private - Faith based organization (FBO),55219,05-01-0116,-6.82734,37.66318,,1,0,0,0,0
111331-5,Ahmes Sec.,Ally Hassan Mwinyi Sec,Registered,2016-02-15T12:26:35.000Z,2019-08-27T10:37:04.000Z,Eastern Zone,Pwani,Bagamoyo,Bagamoyo DC,Kiromo,Kiromo,Dispensary,Closed,Private - For Profit,,,-6.499635,38.913493,11/05/2015,1,0,0,0,0
100058-7,AIC Bweri,Bweri AIC,Registered,2013-08-20T10:23:48.000Z,2015-08-21T11:07:37.000Z,Lake Zone,Mara,Musoma,Musoma MC,Bweri,Bweri,Dispensary,Operating,Private - Faith based organization (FBO),,,-1.53519,33.84328,,1,0,0,0,0
100059-5,AIC Nyasho,AIC Nyasho,Registered,2013-08-20T10:23:48.000Z,2015-08-21T07:37:32.000Z,Lake Zone,Mara,Musoma,Musoma MC,Nyasho,Nyasho Magereza,Dispensary,Operating,Private - Faith based organization (FBO),205207,,-1.512699,33.802456,03/03/2003,1,0,0,0,0
109601-5,AICC,,Registered,2015-03-27T12:05:06.000Z,2019-03-01T09:12:33.000Z,Northern Zone,Arusha,Arusha,Arusha CC,Sekei,Mahakama,Hospital - Hospital at District Level,Operating,Public - Parastatal,23001,02-03-0500,-3.37481,36.69946,,1,1,0,0,0
100061-1,AICT Bunda,AICT BUNDA,Registered,2013-08-20T10:23:48.000Z,2019-05-10T11:21:57.000Z,Lake Zone,Mara,Bunda,Bunda TC,Kabarimu,Kabarimu,Dispensary,Operating,Private - Faith based organization (FBO),,,-2.01881,33.872,07/07/2006,1,0,0,0,0
100062-9,AICT Makongoro,AICT Makongoro,Registered,2013-08-20T10:23:49.000Z,2016-02-24T19:27:29.000Z,Lake Zone,Mwanza,Nyamagana,Nyamagana MC,Isamilo,Nyakabungo,Health Center,Operating,Private - Faith based organization (FBO),193004,19-03-0110,-2.50528,32.90121,,1,0,0,0,0
100067-8,Airport Church,,Registered,2013-08-20T10:23:50.000Z,2017-02-28T11:45:30.000Z,Eastern Zone,Dar es Salaam,Ilala,Ilala MC,Kipawa,Kipunguni,Dispensary,Closed,Private - For Profit,,,-6.86298,39.206301,,0,0,0,0,0
100068-6,Airport MICO,,Registered,2013-08-20T10:23:50.000Z,2017-02-28T11:42:08.000Z,Eastern Zone,Dar es Salaam,Ilala,Ilala MC,Kipawa,Kipunguni,Dispensary,Closed,Private - For Profit,,,-6.867489,39.192029,,0,0,0,0,0
100069-4,Airport Police,Terminal One,Not Registered,2013-08-20T10:23:50.000Z,2015-07-08T10:12:28.000Z,Eastern Zone,Dar es Salaam,Ilala,Ilala MC,Kipawa,Kipunguni,Dispensary,Operating,Public - Police,,,-6.87122,39.20314,01/06/1967,1,0,0,0,0
110667-3,Airport Tanzania,Airport Dispensary,Registered,2015-07-10T12:36:42.000Z,2019-11-14T17:35:26.000Z,Eastern Zone,Dar es Salaam,Ilala,Ilala MC,Kipawa,Kipunguni,Dispensary,Operating,Public - MoHCDGEC,,,-6.862977,39.206299,01/06/1972,1,0,0,0,0
100070-2,Airwing 603 ATS,Air Wing,Registered,2013-08-20T10:23:50.000Z,2019-11-10T16:11:46.000Z,Eastern Zone,Dar es Salaam,Ilala,Ilala MC,Kipawa,Kipunguni,Dispensary,Operating,Public - Military,,,-6.868095,39.19808,01/06/1972,1,0,0,0,0
100072-8,Akim Dental Services,Kwa Akim,Registered,2013-08-20T10:23:51.000Z,2019-11-14T17:36:27.000Z,Eastern Zone,Dar es Salaam,Ilala,Ilala MC,Kivukoni,Kivukoni,Clinic - Dental Clinic,Operating,Private - For Profit,72111,,-6.81857,39.28699,15/03/2001,1,1,0,0,0
100079-3,Al - Amal,Umusalama,Registered,2013-08-20T10:23:52.000Z,2019-04-25T09:53:41.000Z,Southern Highlands Zone,Iringa,Iringa,Iringa MC,Gangilonga,Sabasaba,Dispensary,Operating,Private - For Profit,116208,,-7.77564,35.70213,07/09/2013,1,0,0,0,0
100074-4,Al Hassan,,,2013-08-20T10:23:51.000Z,2015-08-14T11:58:00.000Z,Eastern Zone,Dar es Salaam,Ilala,Ilala MC,Mchafukoge,Mchafukoge,Clinic - Dental Clinic,Closed,Private - For Profit,,,-6.81909,39.28271,,0,0,0,0,0
100075-1,Al Hilal,Al Hilal,Registered,2013-08-20T10:23:51.000Z,2019-03-01T10:30:45.000Z,Eastern Zone,Dar es Salaam,Ilala,Ilala MC,Mchafukoge,Mchafukoge,Clinic - Polyclinic,Operating,Private - Faith based organization (FBO),72262,,-6.81897,39.28139,21/01/1981,1,1,0,0,0
100086-8,Al Jumaa,Al Jumaa Dispensary,Registered,2013-08-20T10:23:53.000Z,2016-04-22T18:13:55.000Z,Eastern Zone,Dar es Salaam,Ilala,Ilala MC,Kariakoo,Kariakoo kaskazini,Dispensary,Operating,Private - Faith based organization (FBO),72019,,-6.818188,39.275753,13/09/1999,1,1,0,0,0
100078-5,Al Karimu,Bakwata,Registered,2013-08-20T10:23:52.000Z,2015-07-10T06:47:39.000Z,Eastern Zone,Dar es Salaam,Ilala,Ilala MC,Vingunguti,Kombo,Dispensary,Operating,Private - For Profit,72020,,-6.840399,39.237449,08/09/1997,1,1,0,0,0
100082-7,Al-Ehsaa,KALOLENI HEALTH CENTRE,Registered,2013-08-20T10:23:53.000Z,2015-07-23T12:14:45.000Z,Northern Zone,Kilimanjaro,Moshi,Moshi MC,Kaloleni,Kaloleni,Dispensary,Operating,Private - Faith based organization (FBO),36030,,-3.36883,37.3457,19/09/0098,1,0,0,0,0
100085-0,Al-Ijumaa,Al Jumaa,Registered,2013-08-20T10:23:53.000Z,2017-11-08T18:53:35.000Z,Lake Zone,Mwanza,Nyamagana,Nyamagana MC,Pamba,Pamba 'A',Health Center,Operating,Private - Faith based organization (FBO),193005,,-2.520509,32.902825,03/04/1990,1,1,0,0,0
112065-8,AL-Mansoor,AL-Mansoor,Registered,2018-02-01T05:47:58.000Z,2019-05-08T21:53:29.000Z,Central Zone,Singida,Singida,Singida DC,Msisi,Nkwae,Dispensary,Operating,Private - Faith based organization (FBO) - Bakwata,,,-4.63479,34.65291,31/10/2017,0,0,1,0,0
100092-6,Al-Mohlem,Al-Mohlem,Registered,2013-08-20T10:23:55.000Z,2018-05-17T05:30:17.000Z,Northern Zone,Tanga,Tanga,Tanga CC,Ngamiani Kaskazini,Mkwakwani,Dispensary,Operating,Private - Faith based organization (FBO),,,-5.083031,39.116825,,1,0,0,0,0
112983-2,AL-Tabibu,,Registered,2019-03-10T08:33:55.000Z,2019-09-02T11:32:17.000Z,Southern Zone,Mtwara,Mtwara,Mtwara MC,Naliendele,Naliendele,Health Labs - Level IA2 (Dispensary Laboratory),Operating,Private - For Profit,PHL-C/MTW/AUT/010,,-10.36506,40.16107,,0,0,0,0,0
111227-5,Alailelai,,Registered,2015-11-26T13:41:01.000Z,2019-11-27T06:42:24.000Z,Northern Zone,Arusha,Ngorongoro,Ngorongoro DC,Alailelai,Alailelai,Dispensary,Operating,Public - LGA,,,-2.956721,35.698378,01/07/2014,0,0,1,0,0
100080-1,Alamano,Alamano,Registered,2013-08-20T10:23:52.000Z,2015-03-30T12:53:12.000Z,Southern Highlands Zone,Iringa,Iringa,Iringa MC,Gangilonga,Sabasaba,Dispensary,Operating,Private - Faith based organization (FBO),116209,,-7.77281,35.70111,30/07/2004,1,0,0,0,0
110613-7,Alara,,Registered,2015-07-10T07:02:49.000Z,2019-08-06T08:16:25.000Z,Eastern Zone,Dar es Salaam,Temeke,Temeke MC,Chamazi,Msufini,Clinic - Specialized Polyclinic,Operating,Private - For Profit,73363,,-6.91848,39.23563,01/02/2015,1,0,0,0,0
Not set,Alensoni,Kifuru,Not Registered,2014-05-22T07:14:25.000Z,2016-04-21T13:25:10.000Z,Eastern Zone,Pwani,Kisarawe,Kisarawe DC,Kisarawe,Kifuru,Clinic,Pending Operation - Under Construction,Private - Faith based organization (FBO),,,-6.95372,38.96669,21/01/2015,0,0,1,0,0
112947-7,ALEP,ALEP,Registered,2019-03-07T16:07:45.000Z,2019-05-22T14:41:34.000Z,Northern Zone,Kilimanjaro,Moshi,Moshi DC,Mabogini,Mabogini,Health Labs - Level IA2 (Dispensary Laboratory),Operating,Private - For Profit,PHL-C/KIL/AUT/08,,-3.40753,37.36253,10/04/2014,1,0,0,0,0
110629-3,Alexia,Alexia Dispensary,Registered,2015-07-10T09:12:16.000Z,2017-10-16T13:50:58.000Z,Eastern Zone,Dar es Salaam,Temeke,Temeke MC,Toangoma,Toangoma,Health Center,Operating,Private - For Profit,73359,,-6.94335,39.308997,01/04/2014,1,1,0,0,0
112325-6,Alexia Medical,,Registered,2018-08-14T13:21:02.000Z,2019-03-01T10:37:58.000Z,Eastern Zone,Dar es Salaam,Temeke,Temeke MC,Toangoma,Vikunai,Clinic - Specialized clinic,Operating,Private - For Profit,7407,,-6.91139,39.30706,04/05/2018,1,0,0,0,0
113555-7,Alfa,ALFA,Registered,2019-04-10T08:05:19.000Z,2020-02-26T06:21:08.000Z,Southern Highlands Zone,Katavi,Mpanda,Mpanda MC,Kashaulili,Majengo A,Health Labs - Level IA2 (Dispensary Laboratory),Operating,Private - For Profit,PHL-C/KTV/AUT/010,,-6.3442,31.07046,07/01/2019,0,1,0,0,0
111435-4,Alfa,,Registered,2016-08-11T12:19:42.000Z,2019-11-14T17:39:08.000Z,Eastern Zone,Dar es Salaam,Ilala,Ilala MC,Upanga Mashariki,Not set,Clinic - Specialized clinic,Operating,Private - For Profit,,,-6.79789,39.27839,22/08/2017,0,0,0,0,0
111703-5,Alfa-Prolife,Alfa-Prolife,Registered,2017-04-06T20:22:01.000Z,2019-07-18T09:18:58.000Z,Eastern Zone,Morogoro,Morogoro,Morogoro MC,Kingolwira,Mjimwema,Dispensary,Operating,Private - Faith based organization (FBO),,,-6.796398,37.676988,,1,0,0,0,0
113047-5,Alinda,,Registered,2019-03-10T12:20:05.000Z,2019-05-13T20:16:50.000Z,Lake Zone,Kagera,Bukoba,Bukoba MC,Rwamishenye,National(NHC),Health Labs - Level IA2 (Dispensary Laboratory),Operating,Private - For Profit,PHL-C/KAG/AUT/015,,-1.32175,31.793918,08/03/2018,1,1,0,0,0
112626-7,Alira,,Registered,2019-03-01T15:35:44.000Z,2019-05-07T15:44:11.000Z,Eastern Zone,Dar es Salaam,Ilala,Ilala MC,Upanga Mashariki,Kibasila,Clinic - Dental Clinic,Operating,Private - For Profit,75525,,-6.8092,39.28655,16/05/2018,0,0,0,0,0
110303-5,Aljamih,,Registered,2015-06-17T08:17:22.000Z,2019-10-14T06:05:07.000Z,Eastern Zone,Morogoro,Morogoro,Morogoro MC,Mwembesongo,Mwembesongwe,Dispensary,Closed (Temporary),Private - Faith based organization (FBO),,,-6.80408,37.66922,,1,0,0,0,0
111899-1,Aljumaa,Aljumaa,Registered,2017-10-30T10:25:50.000Z,2019-08-14T09:09:08.000Z,Eastern Zone,Dar es Salaam,Ilala,Ilala MC,Kariakoo,Kariakoo Mashariki,Clinic - Dental Clinic,Operating,Private - For Profit,,,-6.81801,39.27576,01/01/2017,0,0,0,0,0
100087-6,Alkaria,Arkaria Dispensary,Registered,2013-08-20T10:23:54.000Z,2019-06-12T01:42:37.000Z,Northern Zone,Arusha,Monduli,Monduli DC,Sepeko,Arkaria,Dispensary,Operating,Public - LGA,,,-3.32432,36.30118,,0,0,1,0,0
100090-0,Alliance One,,,2013-08-20T10:23:54.000Z,2016-01-13T08:06:29.000Z,Eastern Zone,Morogoro,Morogoro,Morogoro DC,Mkambarani,Mkambarani,Dispensary,Operating,Private - For Profit,,,-6.77842,37.76137,,0,0,0,0,0
110974-3,Alma prinmat,Zahanati,Registered,2015-10-09T09:46:06.000Z,2019-01-31T07:55:48.000Z,Lake Zone,Mwanza,Sengerema,Sengerema DC,Nyamatongo,Kamanga,Health Labs,Closed,Private - For Profit,82,,-2.536471,32.834879,,1,0,0,0,0
100093-4,Alpha,ALPHA PRINMAT,Registered,2013-08-20T10:23:55.000Z,2015-08-20T07:43:55.000Z,Lake Zone,Mara,Tarime,Tarime DC,Sirari,Kanisani,Maternity Home,Operating,Private - For Profit,56,,-1.25212,34.4751,,1,0,0,0,0
112826-3,Alpha,Alpha Health Laboratory,Registered,2019-03-02T03:21:09.000Z,2019-05-29T03:44:56.000Z,Lake Zone,Geita,Geita,Geita TC,Kalangalala,Not set,Health Labs - Level IA2 (Dispensary Laboratory),Operating,Private - For Profit,PHL-C/GTA/AUT/05,,-2.87762,32.26384,,1,0,0,0,0
113307-3,Alpha,,Registered,2019-03-27T17:37:48.000Z,2019-05-29T14:11:21.000Z,Lake Zone,Mwanza,Ilemela,Ilemela MC,Nyamanoro,Not set,Health Labs - Level IA2 (Dispensary Laboratory),Operating,Private - For Profit,PHL-C/MWZ/AUT/02,,-2.493986,32.912633,,0,0,0,0,0
112651-5,Alpha,ALPHA,Registered,2019-03-02T04:01:01.000Z,2019-07-18T11:47:07.000Z,Eastern Zone,Morogoro,Morogoro,Morogoro MC,Kihonda,Not set,Health Labs - Level IA2 (Dispensary Laboratory),Operating,Private - For Profit,phl-c/mor/aut/05,,-6.786597,37.659471,,1,0,0,0,0
112337-1,Alpha,,Registered,2018-08-20T14:08:18.000Z,2020-03-09T16:39:33.000Z,Southern Highlands Zone,Iringa,Kilolo,Kilolo DC,Ruaha Mbuyuni,Ruaha Mbuyuni,Dispensary,Operating,Private - For Profit,111236,,-7.46623,36.50618,01/08/2018,1,0,0,0,0
109507-4,Alsheikh,Alsheikh,Registered,2015-03-27T10:11:24.000Z,2019-09-21T10:32:24.000Z,Southern Highlands Zone,Iringa,Kilolo,Kilolo DC,Ruaha Mbuyuni,Ruaha Mbuyuni,Dispensary,Operating,Private - Faith based organization (FBO),111021,11-07-0112,-7.46679,36.51212,,1,0,0,0,0
112346-2,Alshifaa Medical Kidney,Alshifa Medical Kidney,Registered,2018-08-28T09:49:57.000Z,2018-10-13T13:57:29.000Z,Eastern Zone,Dar es Salaam,Kinondoni,Kinondoni MC,Mikocheni,Mikocheni B,Clinic,Operating,Private - For Profit,,,-6.761681,39.250331,08/05/2017,1,0,0,0,0
100097-5,Amana,Amana,Registered,2013-08-20T10:23:56.000Z,2019-11-14T17:44:24.000Z,Eastern Zone,Dar es Salaam,Ilala,Ilala MC,Ilala,Shariff Shamba,Hospital - Regional Referral Hospital,Operating,Public - MoHCDGEC,,,-6.82674,39.25926,01/01/1968,1,1,0,0,0
112749-7,Amana Eye Centre,,Registered,2019-03-07T03:27:28.000Z,2019-08-14T08:59:44.000Z,Eastern Zone,Dar es Salaam,Ilala,Ilala MC,Ilala,Mafuriko,Clinic - Optometry Clinic,Operating,Private - For Profit,120,,-6.82798,39.25867,02/03/2015,1,0,0,0,0
100098-3,Amani,,,2013-08-20T10:23:56.000Z,2015-03-30T11:03:42.000Z,Northern Zone,Arusha,Karatu,Karatu DC,Karatu,Karatu Mjini,Dispensary,Closed,Private - For Profit,,,-3.34026,35.6806,,0,0,0,0,0
100105-6,Amani,Amani,Registered,2013-08-20T10:23:57.000Z,2016-02-26T07:50:13.000Z,Southern Zone,Ruvuma,Namtumbo,Namtumbo DC,Magazini,Amani,Dispensary,Operating,Public - LGA,,,-11.47111,36.65333,,0,0,1,0,0
100108-0,Amani,Amani,Registered,2013-08-20T10:23:58.000Z,2018-03-29T08:14:02.000Z,Central Zone,Dodoma,Dodoma,Dodoma MC,Makole,Chimuli,Health Center,Operating,Private - For Profit,,,-6.160399,35.760658,12/04/2011,1,0,0,0,0
100107-2,Amani,Amani,Registered,2013-08-20T10:23:58.000Z,2019-05-28T09:44:32.000Z,Northern Zone,Tanga,Muheza,Muheza DC,Amani,Shebomeza,Dispensary,Operating,Public - LGA,,,-5.10012,38.63348,,1,0,0,0,0
100109-8,Amani,,Registered,2013-08-20T10:23:58.000Z,2019-06-04T08:25:45.000Z,Northern Zone,Manyara,Babati,Babati TC,Babati,Maisaka B,Maternity and Nursing Home,Operating,Private - For Profit,,,-4.20857,35.75193,,1,0,0,0,0
111694-6,Amani,Amani,Registered,2017-03-31T18:29:08.000Z,2019-06-07T18:19:18.000Z,Northern Zone,Tanga,Handeni,Handeni DC,Mazingara,Amani,Dispensary,Operating,Public - LGA,,,-5.71533,38.23912,01/07/2017,0,0,1,0,0
113304-0,Amani,,Registered,2019-03-27T17:31:26.000Z,2019-07-05T10:29:03.000Z,Eastern Zone,Pwani,Kibaha,Kibaha TC,Kibaha,Kwamfipa,Health Labs - Level IA2 (Dispensary Laboratory),Operating,Private - For Profit,PHL-C/PWN/AUT/033,,-6.74867,38.90404,,1,0,0,0,0
111948-6,Amani,AMANI Dispensary,Registered,2017-12-12T07:23:39.000Z,2019-07-17T09:21:58.000Z,Southern Zone,Mtwara,Tandahimba,Tandahimba DC,Tandahimba,Matogoro,Dispensary,Operating,Private - For Profit,91206,,-10.76348,39.6334,22/04/2017,1,1,0,0,0
112705-9,Amani,,Registered,2019-03-02T04:18:39.000Z,2019-07-21T20:20:58.000Z,Eastern Zone,Morogoro,Ulanga,Ulanga DC,Lupiro,Not set,Health Labs - Level IA2 (Dispensary Laboratory),Operating,Private - For Profit,Phl-C/Mor/Aut/044,,-8.3859,36.6693,,0,0,0,0,0
100106-4,Amani,Amani,Registered,2013-08-20T10:23:58.000Z,2019-08-22T06:35:14.000Z,Southern Zone,Ruvuma,Tunduru,Tunduru DC,Namasakata,Mchengamoto,Dispensary,Operating,Public - LGA,,,-11.21349,37.45284,15/07/2004,0,0,1,0,0
100100-7,Amani,Amani,Registered,2013-08-20T10:23:56.000Z,2019-10-15T11:16:17.000Z,Southern Highlands Zone,Njombe,Ludewa,Ludewa DC,Mundindi,Amani,Dispensary,Operating,Public - LGA,,22-05-0135,-9.94648,34.89538,18/07/1978,0,0,1,0,0
113390-9,Amani,,Registered,2019-03-27T17:32:23.000Z,2019-12-05T08:02:30.000Z,Lake Zone,Mwanza,Ilemela,Ilemela MC,Nyamanoro,Not set,Health Labs - Level IA2 (Dispensary Laboratory),Operating,Private - For Profit,PHL-C/MWZ/AUT/084,,-2.483353,32.907111,20/09/2018,0,0,0,0,0
108988-7,Amani,Amani Handeni,Registered,2014-10-17T13:56:00.000Z,2019-11-28T11:56:40.000Z,Northern Zone,Tanga,Handeni,Handeni TC,Mdoe,Mjimpya,Dispensary,Operating,Private - For Profit,46200,,-5.42361,38.02162,20/01/2013,1,0,0,0,0
100110-6,Amani Chogo,Amani chogo,Registered,2013-08-20T10:23:58.000Z,2017-02-06T06:45:09.000Z,Lake Zone,Mwanza,Nyamagana,Nyamagana MC,Mirongo,Uhuru,Clinic - Other Clinic,Operating,Private - For Profit,1930003,,-2.51685,32.90191,,1,0,0,0,0
111966-8,Amani GE,,Registered,2018-01-16T15:28:45.000Z,2019-06-21T08:31:09.000Z,Northern Zone,Arusha,Arusha,Arusha CC,Kati,Pangani,Health Labs - Level IA2 (Dispensary Laboratory),Operating,Private - For Profit,PHL-C/AR/AUT/28,,-3.368256,36.68539,,1,0,0,0,0
100111-4,Amani Igoma,Amani Igoma,Not Registered,2013-08-20T10:23:59.000Z,2019-12-11T13:31:55.000Z,Lake Zone,Mwanza,Nyamagana,Nyamagana MC,Igoma,Dr. Shein,Dispensary,Closed (Temporary),Private - For Profit,nil,,-2.547683,32.979226,,1,0,0,0,0
111571-6,Amani Kiluvya,Obeja,Not Registered,2016-11-02T11:35:03.000Z,2018-04-23T09:16:56.000Z,Eastern Zone,Pwani,Kisarawe,Kisarawe DC,Kiluvya,Kiluvya 'B',Dispensary,Closed,Private - For Profit,,,-6.80012,39.02161,20/06/2016,1,0,0,0,0
111795-1,Amani Kiluvya,Amani Kiluvya,Registered,2017-07-14T05:11:40.000Z,2019-07-16T13:16:43.000Z,Eastern Zone,Pwani,Mkuranga,Mkuranga DC,Vikindu,Kipala Mpakani,Dispensary,Operating,Private - For Profit,63203,,-6.95651,39.28335,,1,0,0,0,0
100112-2,Amani makolo,Amani Makoro Dispensary,Registration Pending Certification,2013-08-20T10:23:59.000Z,2018-05-02T11:26:16.000Z,Southern Zone,Ruvuma,Mbinga,Mbinga DC,Amani Makolo,Amani Makoro,Dispensary,Operating,Public - LGA,,,-10.674759,35.135415,20/03/1986,0,0,1,1,0
112221-7,Amani Medics,,Registered,2018-05-07T10:34:17.000Z,2018-05-07T10:34:17.000Z,Central Zone,Dodoma,Dodoma,Dodoma MC,Chang'ombe,Chang'ombe Juu,Dispensary,Operating,Private - For Profit,14229,,-6.15357,35.73833,26/01/2018,1,0,0,0,0
100113-0,Amani NIMR,Amani NIMR,Not Registered,2013-08-20T10:23:59.000Z,2015-08-24T07:03:26.000Z,Northern Zone,Tanga,Muheza,Muheza DC,Amani,Shebomeza,Dispensary,Closed,Public - Parastatal,,,-5.09886,38.6332,,0,0,0,0,0
113770-2,Amani Terat,Amani Terat,Registered,2019-08-28T18:03:15.000Z,2019-12-20T12:14:51.000Z,Northern Zone,Manyara,Simanjiro,Simanjiro DC,Terrat,Not set,Dispensary,Operating,Private - For Profit,,,-3.88263,36.59731,16/07/2019,0,1,1,0,0
100116-3,Ambangulu,,Registered,2013-08-20T10:24:00.000Z,2015-12-16T09:24:45.000Z,Northern Zone,Tanga,Korogwe,Korogwe DC,Vugiri,Makweli,Dispensary,Operating,Private - For Profit,,,-5.07077,38.42567,,0,0,0,0,0
100117-1,Amboni,,Registered,2013-08-20T10:24:00.000Z,2015-06-30T06:57:48.000Z,Northern Zone,Tanga,Tanga,Tanga CC,Mzizima,Mleni,Dispensary,Closed,Private - For Profit,,,-5.04776,39.05074,,0,0,0,0,0
112097-1,Ambreni,Ambreni,Registered,2018-02-08T09:54:16.000Z,2019-05-29T10:39:09.000Z,Northern Zone,Arusha,Arumeru,Meru DC,Ambureni,Ambureni,Dispensary,Operating,Public - LGA,,,-3.36819,36.75618,17/01/2018,1,0,0,0,0
107961-5,AMEC,AMEC,Registered,2013-08-20T10:53:57.000Z,2018-04-02T03:51:30.000Z,Western Zone,Tabora,Sikonge,Sikonge DC,Tutuo,Tutuo,Dispensary,Operating,Private - Faith based organization (FBO),,,-5.48138,32.6768,14/02/2002,1,0,0,0,0
100119-7,AMEC,AMEC,Registered,2013-08-20T10:24:00.000Z,2019-05-23T16:54:08.000Z,Southern Highlands Zone,Katavi,Mpanda,Mpanda MC,Makanyagio,Makanyagio,Dispensary,Operating,Private - Faith based organization (FBO),151202,23-02-0121,-6.337284,31.070345,12/07/2006,0,0,0,0,1
111640-9,Ameki,,Registered,2017-02-01T05:40:56.000Z,2019-05-29T07:09:08.000Z,Southern Highlands Zone,Mbeya,Kyela,Kyela DC,Kyela,Ndandalo,Dispensary,Operating,Private - For Profit,123208,,-9.60517,33.85842,05/09/2016,1,0,0,0,0
111681-3,Amen,a,Registered,2017-03-07T16:17:06.000Z,2019-04-26T18:43:54.000Z,Lake Zone,Kagera,Ngara,Ngara DC,Ngara Mjini,Mubinyange,Dispensary,Operating,Private - For Profit,185204,,-2.51155,30.6538,01/11/2016,1,0,0,0,0
113184-6,Amen,,Registered,2019-03-27T10:13:15.000Z,2019-05-30T07:55:24.000Z,Western Zone,Tabora,Tabora,Tabora MC,Ng`ambo,Not set,Health Labs - Level IA2 (Dispensary Laboratory),Operating,Private - For Profit,PHL-C/TAB/AUT/03,,-5.02836,32.801762,,0,0,0,0,0
112037-7,Amen,,Registered,2018-01-23T08:16:51.000Z,2019-06-04T11:54:18.000Z,Northern Zone,Manyara,Babati,Babati TC,Babati,Old,Health Labs - Level IA2 (Dispensary Laboratory),Operating,Private - For Profit,PHL-C/MNR/AUT/05,,-4.2082,35.74563,,1,0,0,0,0
113333-9,Amen,,Registered,2019-03-27T17:59:11.000Z,2019-06-07T17:49:56.000Z,Lake Zone,Mwanza,Ilemela,Ilemela MC,Nyakato,Not set,Health Labs - Level IA2 (Dispensary Laboratory),Operating,Private - For Profit,PHL-C/MWZ/AUT/030,,-2.531975,32.940116,,0,0,0,0,0
100120-5,Ameni,Ameni,Registered,2013-08-20T10:24:00.000Z,2019-05-17T10:27:09.000Z,Southern Highlands Zone,Mbeya,Kyela,Kyela DC,Kyela,Kyela kati,Dispensary,Operating,Private - For Profit,123204,,-9.59996,33.86665,12/12/2008,1,1,0,0,0
100121-3,Ameni,Amen,Registered,2013-08-20T10:24:01.000Z,2020-01-24T13:43:55.000Z,Eastern Zone,Dar es Salaam,Ubungo,Ubungo MC,Sinza,Sinza A,Dispensary,Operating,Private - For Profit,71266,,-6.78339,39.22297,20/04/1999,1,1,0,0,0
112596-2,Amenye,Amenye zahanati,Registered,2019-02-28T14:03:44.000Z,2019-06-16T18:01:23.000Z,Southern Highlands Zone,Mbeya,Mbeya,Mbeya CC,Iyela,Ilembo,Health Labs - Level IA2 (Dispensary Laboratory),Operating,Private - For Profit,PHL-C/MBY/AVT/06,,-8.92578,33.45772,18/01/2015,1,0,0,0,0
111355-4,Amenye,Amenye Hospitali,Registered,2016-03-15T04:20:23.000Z,2019-05-29T10:06:59.000Z,Southern Highlands Zone,Mbeya,Mbeya,Mbeya CC,Iyela,Ilembo,Dispensary,Operating,Private - For Profit,127134,,-8.92578,33.45772,01/01/2016,1,0,0,0,0
113194-5,Amigo,,Registered,2019-03-27T11:03:52.000Z,2019-05-30T07:03:49.000Z,Western Zone,Tabora,Urambo,Urambo DC,Urambo,Not set,Health Labs - Level IA2 (Dispensary Laboratory),Operating,Private - For Profit,PHL-C/TAB/AUT/012,,-5.069475,32.072481,,0,0,0,0,0
113403-0,AMREF,,Registered,2019-03-27T17:58:40.000Z,2019-11-14T17:45:34.000Z,Eastern Zone,Dar es Salaam,Ilala,Ilala MC,Upanga Mashariki,Not set,Health Labs - Level III single purpose Health Laboratory,Operating,Private - For Profit,PHL-ASingle purpose/DSM-ILA/AUT/01,,-6.80899,39.28654,01/06/2004,1,1,0,0,0
107732-0,Amsterdam,Tamta Makorora,Registered,2013-08-20T10:52:59.000Z,2015-12-18T05:57:11.000Z,Northern Zone,Tanga,Tanga,Tanga CC,Makorora,Makorora kati,Dispensary,Operating,Private - For Profit,,,-5.088497,39.110085,,1,0,0,0,0
109829-2,AMUCTA,AMUCTA,Registered,2015-03-30T06:07:55.000Z,2018-10-25T05:08:47.000Z,Western Zone,Tabora,Tabora,Tabora MC,Kanyenye,T.T.C,Dispensary,Operating,Private - Faith based organization (FBO),,,-5.02433,32.81594,07/08/2013,1,0,0,0,0
100123-9,Anamed,Anamed,Registered,2013-08-20T10:24:01.000Z,2020-02-05T09:36:06.000Z,Lake Zone,Mwanza,Kwimba,Kwimba DC,Malya,Malya,Dispensary,Closed,Private - For Profit,194202,,-2.97539,33.51805,,0,0,1,0,0
100124-7,Ananda Marga,Kwa Mfilipino,Registered,2013-08-20T10:24:01.000Z,2019-11-14T17:47:11.000Z,Eastern Zone,Dar es Salaam,Ilala,Ilala MC,Pugu,Kinyamwezi,Dispensary,Operating,Private - For Profit,72335,,-6.928634,39.128981,08/11/2011,1,1,0,0,0
111521-1,Ane,Ane,Registered,2016-09-29T09:07:28.000Z,2019-11-27T13:14:41.000Z,Eastern Zone,Morogoro,Kilombero,Kilombero DC,Mofu,Mofu,Dispensary,Operating,Private - For Profit,53225,,-8.2525,36.361138,05/09/2016,0,0,1,0,0
110610-3,Ane Afya Care,Ane Dispensary,Registered,2015-07-10T06:47:56.000Z,2019-11-14T17:49:22.000Z,Eastern Zone,Dar es Salaam,Ilala,Ilala MC,Ukonga,Mongo la ndege,Dispensary,Operating,Private - For Profit,72419,,-6.863498,39.167459,12/05/2015,1,1,0,0,0
112967-5,Angaza,Angaza Laboratory,Registered,2019-03-07T18:52:32.000Z,2019-08-09T06:31:06.000Z,Southern Zone,Lindi,Nachingwea,Nachingwea DC,Nachingwea,Not set,Health Labs - Level IA2 (Dispensary Laboratory),Operating,Private - For Profit,PHL-C/LIND/AUT/07,,-10.369,38.76437,04/05/2018,1,0,0,0,0
111209-3,Angaza centre,,Registered,2015-11-26T09:35:51.000Z,2019-09-04T19:01:52.000Z,Western Zone,Tabora,Tabora,Tabora MC,Mbugani,Not set,Clinic,Closed,Private - NGOs,,,-5.01643,32.80093,,0,0,0,0,0
111292-9,Angaza VCT,ANGAZA,Not Registered,2015-12-18T11:48:27.000Z,2016-06-11T12:05:43.000Z,Southern Zone,Ruvuma,Songea,Songea MC,Misufini,Mabatini,Clinic - Other Clinic,Operating,Public - LGA,,,-10.67188,35.64617,03/09/1999,0,0,0,0,0
111236-6,ANGAZA- VCT,AICT ANGAZA,Registered,2015-11-27T10:58:47.000Z,2019-05-08T21:08:20.000Z,Western Zone,Shinyanga,Shinyanga,Shinyanga MC,Kambarage,Majengo,Clinic - Other Clinic,Operating,Private - Faith based organization (FBO),6767,17-05-0112,-3.39915,33.24945,21/03/2003,1,0,0,0,0
100127-0,Anglican,,,2013-08-20T10:24:02.000Z,2015-08-13T05:49:10.000Z,Eastern Zone,Dar es Salaam,Kinondoni,Kinondoni MC,Ubungo,NHC,Dispensary,Closed,Private - Faith based organization (FBO),,,-6.79041,39.2154,,0,0,0,0,0
100129-6,Anglican,Anglican health center,Registered,2013-08-20T10:24:02.000Z,2019-05-29T11:28:14.000Z,Southern Highlands Zone,Njombe,Njombe,Njombe TC,Mjimwema,Mpechi,Health Center,Operating,Private - Faith based organization (FBO),113212,22-01-0101,-9.349741,34.771487,27/02/1996,1,0,0,0,0
100131-2,Anglo Charity,Anglo charty,Registered,2013-08-20T10:24:03.000Z,2019-12-11T13:43:31.000Z,Southern Highlands Zone,Songwe,Momba,Tunduma TC,Mpemba,kokoto,Dispensary,Closed,Private - For Profit,,,-9.26241,32.83017,13/01/2018,1,0,0,0,0
111600-3,Anifa,,Registered,2016-12-22T12:36:13.000Z,2019-07-25T09:50:51.000Z,Eastern Zone,Dar es Salaam,Ubungo,Ubungo MC,Msigani,Temboni,Dispensary,Operating,Private - For Profit,,,-6.807259,39.124126,10/06/2016,1,0,0,0,0
112516-0,Anifa Mkunguni,Mkunguni,Registered,2019-02-18T06:27:25.000Z,2019-02-18T06:27:25.000Z,Eastern Zone,Dar es Salaam,Ubungo,Ubungo MC,Makurumla,Kilimahewa,Dispensary,Operating,Private - For Profit,71571,,-6.796379,39.230893,,1,0,0,0,0
100133-8,Anne,Anne dispensary- Kwa Dr. Mulinda,Registered,2013-08-20T10:24:03.000Z,2019-05-21T06:58:11.000Z,Southern Highlands Zone,Mbeya,Kyela,Kyela DC,Ipinda,Ipinda,Dispensary,Operating,Private - For Profit,12-32-06,,-9.483319,33.8795,29/10/2010,1,1,0,0,0
100134-6,Anne Kiilu,,Registered,2013-08-20T10:24:03.000Z,2019-05-23T12:35:35.000Z,Northern Zone,Kilimanjaro,Moshi,Moshi DC,Kimochi,Mdawi,Dispensary,Operating,Public - LGA,,,-3.31783,37.41059,10/08/2013,1,0,0,0,0
110515-4,Ansa,Ansa,Registered,2015-07-08T10:34:09.000Z,2017-10-13T06:55:37.000Z,Eastern Zone,Dar es Salaam,Temeke,Temeke MC,Chamazi,Magengeni,Dispensary,Operating,Private - For Profit,73381,,-6.977323,39.212857,11/12/2014,1,1,0,0,0
108704-8,Antonio Verna,Antonio Verna,Registered,2014-10-08T10:09:08.000Z,2015-07-16T06:54:55.000Z,Eastern Zone,Dar es Salaam,Kinondoni,Kinondoni MC,Kawe,Mzimuni,Dispensary,Operating,Private - Faith based organization (FBO),71020,,-6.73669,39.22851,06/09/1997,1,1,0,0,0
111927-0,Apala,Apala,Registered,2017-11-15T16:26:03.000Z,2019-11-22T11:26:55.000Z,Eastern Zone,Dar es Salaam,Kinondoni,Kinondoni MC,Magomeni,Makuti B,Dispensary,Operating,Private - For Profit,71496,,-6.8124,39.26,17/10/2017,1,0,0,0,0
111023-8,Apollo,Apollo,Registered,2015-11-04T08:36:02.000Z,2016-06-02T08:46:03.000Z,Central Zone,Dodoma,Dodoma,Dodoma MC,Madukani,Jamali,Health Center,Operating,Private - For Profit,14217,,-6.179807,35.746518,,1,1,0,0,0
100136-1,Apollo Medical Centre,Apollo,Registered,2013-08-20T10:24:04.000Z,2015-04-09T05:35:58.000Z,Eastern Zone,Dar es Salaam,Ilala,Ilala MC,Mchafukoge,Mchafukoge,Health Center,Operating,Private - For Profit,72311,,-6.81857,39.28314,15/04/2014,1,1,0,0,0
100026-4,Apostles of Jesus Njia,A.J.Njia Health Centre,Registered,2013-08-20T10:23:41.000Z,2016-10-21T07:51:28.000Z,Eastern Zone,Dar es Salaam,Ilala,Ilala MC,Segerea,Ugombolwa,Health Center,Closed,Private - Faith based organization (FBO),,,-6.837991,39.190583,,1,0,0,0,0
112755-4,Apple,,Registered,2019-03-07T04:13:47.000Z,2019-07-18T08:57:51.000Z,Eastern Zone,Morogoro,Morogoro,Morogoro MC,Bigwa,Not set,Health Labs - Level IA2 (Dispensary Laboratory),Operating,Private - For Profit,Phl-C/Mor/Aut/071,,-6.831202,37.663591,,0,0,0,0,0
112270-4,Arafa,Arafa Dispensay,Registered,2018-06-16T13:58:17.000Z,2019-11-22T12:00:35.000Z,Southern Zone,Lindi,Kilwa,Kilwa DC,Kinjumbi,Marendego,Dispensary,Operating,Private - NGOs,,,-8.39145,39.27919,01/01/2019,1,0,0,0,0
110833-1,Arafa,Arafa,Registered,2015-07-24T06:51:29.000Z,2019-11-28T16:02:21.000Z,Eastern Zone,Morogoro,Kilosa,Kilosa DC,Ruaha,Ruaha,Dispensary,Operating,Private - For Profit,,,-7.65657,36.98372,11/07/2017,1,0,0,0,0
111089-9,Arafa,Arafa Kigogo,Registered,2015-11-18T07:41:42.000Z,2019-12-11T13:50:30.000Z,Eastern Zone,Dar es Salaam,Kinondoni,Kinondoni MC,Kigogo,Mbuyuni,Dispensary,Closed,Private - For Profit,,,-6.8161,39.2538,,0,0,0,0,0
100142-9,Arafa Amani,Kwa Dr. Amani,Registered,2013-08-20T10:24:05.000Z,2019-11-14T17:50:30.000Z,Eastern Zone,Dar es Salaam,Ilala,Ilala MC,Pugu,Pugu station,Dispensary,Operating,Private - For Profit,72363,,-6.888277,39.118159,02/07/2012,1,1,0,0,0
110593-1,Arafa Anaba,Arafa Anaba Dispensary,Registered,2015-07-09T13:02:29.000Z,2018-11-13T10:36:00.000Z,Eastern Zone,Dar es Salaam,Temeke,Temeke MC,Chamazi,Msufini,Dispensary,Operating,Private - For Profit,73346,,-6.922286,39.235579,,1,0,0,0,0
111791-0,Arafa Anne,,Registered,2017-07-12T05:57:07.000Z,2019-08-14T06:50:54.000Z,Eastern Zone,Dar es Salaam,Ilala,Ilala MC,Tabata,Msimbazi,Dispensary,Operating,Private - For Profit,,,-6.84382,39.21831,01/04/2017,1,1,0,0,0
110602-0,Arafa Azimio,,Registered,2015-07-09T14:05:43.000Z,2018-11-13T10:37:28.000Z,Eastern Zone,Dar es Salaam,Temeke,Temeke MC,Azimio,Mbuyuni,Dispensary,Operating,Private - NGOs,73341,,-6.875625,39.266118,,0,0,0,0,0
110576-6,Arafa Bangulo,Arafa dispensary,Registered,2015-07-09T10:37:47.000Z,2020-01-16T13:11:22.000Z,Eastern Zone,Dar es Salaam,Ilala,Ilala MC,Pugu,Pugu station,Dispensary,Operating,Private - Faith based organization (FBO),72271,,-6.883416,39.158732,10/07/2018,1,0,0,0,0
110748-1,Arafa Boko,Arafa Boko,,2015-07-16T06:20:44.000Z,2015-07-16T06:20:44.000Z,Eastern Zone,Dar es Salaam,Kinondoni,Kinondoni MC,Bunju,Boko,Dispensary,Operating,Private - Faith based organization (FBO),,,-6.62874,39.14956,15/01/2015,1,0,0,0,0
111441-2,Arafa Buguruni Ghana,,Registered,2016-08-11T12:16:47.000Z,2019-11-14T17:55:10.000Z,Eastern Zone,Dar es Salaam,Ilala,Ilala MC,Buguruni,Kisiwani,Dispensary,Operating,Private - For Profit,,,-6.832242,39.241984,01/07/2016,1,1,0,0,0
110525-3,Arafa Chanika,Arafa,Registered,2015-07-08T13:22:17.000Z,2018-09-11T08:57:15.000Z,Eastern Zone,Dar es Salaam,Ilala,Ilala MC,Chanika,Kimwani,Dispensary,Closed (Temporary),Private - For Profit,72373,,-7.004018,39.078184,29/03/2012,1,1,0,0,0
110615-2,Arafa Charitable Kipunguni,Makaburi Dispensary,Registered,2015-07-10T07:10:26.000Z,2019-11-15T06:13:21.000Z,Eastern Zone,Dar es Salaam,Ilala,Ilala MC,Kipawa,Kipunguni,Dispensary,Operating,Private - For Profit,72437,,-6.887388,39.18879,05/08/2013,1,1,0,0,0
113522-7,Arafa CM,,Registered,2019-04-04T08:53:09.000Z,2019-07-26T11:55:52.000Z,Eastern Zone,Dar es Salaam,Temeke,Temeke MC,Charambe,Nzasa B,Health Labs - Level IA2 (Dispensary Laboratory),Operating,Private - For Profit,PHL-C/DSM-TMK/AUT/022,,-6.92328,39.25856,01/07/2018,1,0,0,0,0
100154-4,Arafa Corner,Arafa Kona,Registered,2013-08-20T10:24:07.000Z,2019-11-14T17:02:57.000Z,Eastern Zone,Dar es Salaam,Ubungo,Ubungo MC,Ubungo,Kibo,Dispensary,Operating,Private - For Profit,,,-6.78898,39.19297,26/08/2000,1,0,0,0,0
114018-5,Arafa Daima,,Registered,2020-02-05T12:41:49.000Z,2020-02-05T12:41:49.000Z,Eastern Zone,Dar es Salaam,Temeke,Temeke MC,Mianzini,Mianzini,Dispensary,Operating,Private - For Profit,73424,,-6.93785,39.26202,27/05/2019,1,0,0,0,0
110607-9,Arafa Ferry,Arafa,,2015-07-10T06:41:54.000Z,2017-09-30T10:30:18.000Z,Eastern Zone,Dar es Salaam,Kigamboni,Kigamboni MC,Kigamboni,Ferry,Dispensary,Operating,Private - For Profit,73349,,-6.822329,39.30231,06/08/2013,1,1,0,0,0
111837-1,Arafa Highland,,Registered,2017-08-18T06:25:15.000Z,2019-08-08T09:53:16.000Z,Eastern Zone,Dar es Salaam,Ilala,Ilala MC,Ukonga,Mazizini,Health Center,Operating,Private - For Profit,,,-6.88777,39.16945,14/04/2017,1,1,0,0,0
100147-8,Arafa Huruma,Arafa Huruma,Registered,2013-08-20T10:24:06.000Z,2016-04-21T09:38:26.000Z,Eastern Zone,Dar es Salaam,Kinondoni,Kinondoni MC,Wazo,Wazo,Dispensary,Operating,Private - Faith based organization (FBO),71355,,-6.66753,39.1877,10/03/2011,1,0,0,0,0
100148-6,Arafa Ikwiriri,Arafa Ikwiriri Dispensary,Registered,2013-08-20T10:24:06.000Z,2018-04-17T15:25:17.000Z,Eastern Zone,Pwani,Rufiji,Rufiji DC,Ikwiriri,Ikwiriri Kati,Dispensary,Operating,Private - Faith based organization (FBO) - Bakwata,,,-7.954202,38.982116,02/04/1998,1,0,0,0,0
100149-4,Arafa Jaribu,Arafa foundation Trust Jaribu,Registered,2013-08-20T10:24:06.000Z,2018-04-26T08:48:39.000Z,Eastern Zone,Pwani,Rufiji,Kibiti DC,Mjawa,Jaribu Mpakani,Dispensary,Operating,Private - Faith based organization (FBO),66213,,-7.546859,39.131019,01/07/2000,1,1,0,0,0
111666-4,Arafa Kiberege,ARAFA KIBEREGE,Registered,2017-02-14T13:31:50.000Z,2019-11-27T14:58:35.000Z,Eastern Zone,Morogoro,Kilombero,Kilombero DC,Kiberege,kiberege,Dispensary,Operating,Private - For Profit,53218,,-7.95188,36.861361,10/11/2016,1,0,0,0,0
110523-8,Arafa Kilakala,Kanda ya Mashariki-DSM,Registered,2015-07-08T13:00:43.000Z,2018-11-13T10:41:38.000Z,Eastern Zone,Dar es Salaam,Temeke,Temeke MC,Kilakala,Kilakala,Dispensary,Operating,Private - Faith based organization (FBO),73339,,-6.868475,39.241608,,1,0,0,0,0
108662-8,Arafa Kilindoni,Bamita,Registration Pending Certification,2014-08-12T09:39:25.000Z,2019-09-19T10:00:57.000Z,Eastern Zone,Pwani,Mafia,Mafia DC,Kilindoni,Kilindoni,Dispensary,Closed,Private - For Profit,65201,,-7.91785,39.66385,03/08/2012,0,1,0,0,0
100153-6,Arafa Kisiwani,Arafa Kisiwani,Registered,2013-08-20T10:24:07.000Z,2017-09-30T10:29:06.000Z,Eastern Zone,Dar es Salaam,Kigamboni,Kigamboni MC,Tungi,Tungi,Dispensary,Operating,Private - Faith based organization (FBO),4803,,-6.843464,39.32206,05/02/2015,1,0,0,0,0
100155-1,Arafa Machimbo,,Registered,2013-08-20T10:24:08.000Z,2019-08-06T08:31:37.000Z,Eastern Zone,Dar es Salaam,Temeke,Temeke MC,Yombo Vituka,Machimbo,Dispensary,Closed (Temporary),Private - Faith based organization (FBO),,,-6.88117,39.2316,,0,0,0,0,0
110670-7,Arafa Majohe,Arafa,Registered,2015-07-11T07:51:01.000Z,2016-04-17T19:03:48.000Z,Eastern Zone,Dar es Salaam,Ilala,Ilala MC,Majohe,Mji Mpya,Dispensary,Operating,Private - For Profit,72398,,-6.90007,39.15723,05/08/2013,1,0,0,0,0
100156-9,Arafa Majumba Sita,Arafa Majumba Sita,Registered,2013-08-20T10:24:08.000Z,2019-11-14T19:02:23.000Z,Eastern Zone,Dar es Salaam,Ilala,Ilala MC,Kipawa,Karakata,Dispensary,Operating,Private - Faith based organization (FBO),72303,,-6.865963,39.199649,01/01/1975,1,1,0,0,0
110282-1,Arafa Mamboleo,Nyamongo,Registered,2015-06-12T05:53:53.000Z,2017-10-16T10:02:27.000Z,Eastern Zone,Dar es Salaam,Temeke,Temeke MC,Sandali,Tindwa,Dispensary,Operating,Private - NGOs,73321,,-6.86236,39.25169,,1,1,0,0,0
111954-4,Arafa Mandela,Arafa Makuburi,Registered,2018-01-16T13:26:29.000Z,2019-09-04T10:17:43.000Z,Eastern Zone,Dar es Salaam,Ubungo,Ubungo MC,Makuburi,Mwongozo,Dispensary,Closed,Private - NGOs,,,-6.81477,39.21464,14/02/2017,1,0,0,0,0
100157-7,Arafa Mapinduzi,,Registered,2013-08-20T10:24:08.000Z,2018-11-13T10:43:13.000Z,Eastern Zone,Dar es Salaam,Temeke,Temeke MC,Charambe,Rangi tatu,Dispensary,Operating,Private - For Profit,73307,,-6.927091,39.265052,,1,1,0,0,0
100159-3,Arafa Mbezi,Arafa Mbezi Luis,Registered,2013-08-20T10:24:08.000Z,2020-01-24T13:41:07.000Z,Eastern Zone,Dar es Salaam,Ubungo,Ubungo MC,Mbezi,Mbezi Luis,Dispensary,Operating,Private - Faith based organization (FBO),71300,,-6.7828,39.11346,25/09/2001,1,1,0,0,0
111288-7,Arafa Mkamba,Arafa ngajengwa,Registered,2015-12-16T19:34:31.000Z,2020-02-05T06:54:04.000Z,Eastern Zone,Morogoro,Kilombero,Kilombero DC,Mbingu,Mbingu,Dispensary,Operating,Private - For Profit,53216,,-8.21183,36.22125,29/01/2015,1,0,0,0,0
110533-7,Arafa Mood,Arafa Dispensary,Registered,2015-07-08T14:40:27.000Z,2017-07-18T05:26:02.000Z,Eastern Zone,Dar es Salaam,Ilala,Ilala MC,Tabata,Tabata kisiwani,Dispensary,Closed (Temporary),Private - For Profit,72250,,-6.820831,39.216935,,1,1,0,0,0
100161-9,Arafa Mwananchi,Arafa Mwananchi,Registered,2013-08-20T10:24:09.000Z,2020-01-24T13:48:17.000Z,Eastern Zone,Dar es Salaam,Ubungo,Ubungo MC,Kimara,Kimara baruti,Dispensary,Operating,Private - Faith based organization (FBO),71303,,-6.79292,39.18691,04/07/2012,1,1,0,0,0
100267-4,Arafa Mwendapole,Arafa,Registered,2013-08-20T10:24:30.000Z,2016-04-25T13:46:37.000Z,Eastern Zone,Pwani,Kibaha,Kibaha TC,Kibaha,Kwamfipa,Dispensary,Operating,Private - Faith based organization (FBO),62220,,-6.75084,38.90674,07/04/2015,1,0,0,0,0
100139-5,Arafa Mzinga,Arafa Mzinga,Registered,2013-08-20T10:24:04.000Z,2019-11-14T12:42:09.000Z,Eastern Zone,Dar es Salaam,Ilala,Ilala MC,Kitunda,Mzinga,Dispensary,Operating,Private - For Profit,72358,,-6.90797,39.20252,01/07/2010,1,0,0,0,0
100163-5,Arafa Neema,Arafa Kigogo fresh,Registered,2013-08-20T10:24:09.000Z,2019-11-14T19:04:43.000Z,Eastern Zone,Dar es Salaam,Ilala,Ilala MC,Pugu,Kinyamwezi,Dispensary,Operating,Private - For Profit,72336,,-6.915506,39.122823,02/06/2008,1,0,0,0,0
100162-7,Arafa NHC,Arafa N.H.C,Registered,2013-08-20T10:24:09.000Z,2020-01-24T13:47:43.000Z,Eastern Zone,Dar es Salaam,Ubungo,Ubungo MC,Ubungo,NHC,Dispensary,Operating,Private - Faith based organization (FBO),71152,,-6.79208,39.21271,06/10/2010,1,0,0,0,0
110617-8,Arafa Pugu,Pugu Msikitini,Registered,2015-07-10T07:30:36.000Z,2018-12-10T07:35:10.000Z,Eastern Zone,Dar es Salaam,Ilala,Ilala MC,Pugu,Bombani,Dispensary,Closed (Temporary),Private - For Profit,72406,,-6.902758,39.119109,01/02/2014,1,0,0,0,0
112633-3,Arafa Sameer,,Registered,2019-02-28T20:03:32.000Z,2019-08-14T08:04:05.000Z,Eastern Zone,Dar es Salaam,Ilala,Ilala MC,Ukonga,Mwembe Madafu,Dispensary,Operating,Private - For Profit,72554,,-6.856517,39.239522,11/02/2019,1,1,0,0,0
100166-8,Arafa SES Charitable,Arafa Segerea,Registered,2013-08-20T10:24:10.000Z,2019-11-14T19:07:29.000Z,Eastern Zone,Dar es Salaam,Ilala,Ilala MC,Segerea,Segerea,Dispensary,Operating,Private - For Profit,72331,,-6.844491,39.196949,22/05/2007,1,0,0,0,0
110786-1,Arafa Sinza,Arafa Sinza,Registered,2015-07-17T11:19:30.000Z,2019-09-04T12:01:16.000Z,Eastern Zone,Dar es Salaam,Ubungo,Ubungo MC,Sinza,Sinza D,Dispensary,Operating,Private - For Profit,71276,,-6.78857,39.22475,14/02/2002,1,0,0,0,0
100167-6,Arafa Tembo Mgwaza,Tembo Mgwaza Dispensary,Registered,2013-08-20T10:24:10.000Z,2015-07-10T10:41:34.000Z,Eastern Zone,Dar es Salaam,Ilala,Ilala MC,Kimanga,Tembomgwaza,Dispensary,Operating,Private - For Profit,72338,,-6.826625,39.189662,02/06/1997,1,0,0,0,0
100168-4,Arafa ugweno,arafa ugweno h/c,Registered,2013-08-20T10:24:10.000Z,2019-08-06T08:49:29.000Z,Eastern Zone,Dar es Salaam,Temeke,Temeke MC,Tandika,Tamla,Health Center,Operating,Private - For Profit,,,-6.867199,39.259083,,1,1,0,0,0
110521-2,Arafa Umoja,Arafa Dispensary,Registered,2015-07-08T12:48:32.000Z,2018-11-13T10:48:05.000Z,Eastern Zone,Dar es Salaam,Temeke,Temeke MC,Azimio,Mtongani,Dispensary,Operating,Private - For Profit,73316,,-6.873623,39.269289,,1,0,1,0,0
100169-2,Arafa Upendo,Quick Moscow,Registered,2013-08-20T10:24:10.000Z,2018-11-13T10:51:43.000Z,Eastern Zone,Dar es Salaam,Temeke,Temeke MC,Temeke,Temeke,Health Center,Operating,Private - For Profit,73300,,-6.85673,39.2625,,1,0,0,0,0
108639-6,Arafa Uzuri,Arafa Uzuri,Registered,2014-07-17T07:59:51.000Z,2020-01-24T13:46:41.000Z,Eastern Zone,Dar es Salaam,Ubungo,Ubungo MC,Manzese,Uzuri,Dispensary,Operating,Private - For Profit,71417,,-6.79392,39.23314,04/10/2007,1,1,0,0,0
111377-8,Arafa VIDA,Vida,Registered,2016-05-10T05:31:20.000Z,2016-05-10T05:31:20.000Z,Eastern Zone,Dar es Salaam,Ilala,Ilala MC,Majohe,Mji Mpya,Dispensary,Operating,Private - For Profit,72438,,-6.90683,39.14307,01/03/2016,1,0,0,0,0
110639-2,Arafa Vigaeni,Arafa Vigaeni,Registered,2015-07-10T09:55:16.000Z,2015-07-16T06:23:24.000Z,Eastern Zone,Dar es Salaam,Kinondoni,Kinondoni MC,Bunju,Bunju A,Dispensary,Operating,Private - Faith based organization (FBO),71367,,-6.62014,39.11132,,1,0,0,0,0
107081-2,Arafa Yombo Relini,,Registered,2013-08-20T10:50:17.000Z,2018-11-13T10:53:06.000Z,Eastern Zone,Dar es Salaam,Temeke,Temeke MC,Yombo Vituka,Yombo vituka,Dispensary,Operating,Private - For Profit,73250,,-6.87034,39.230881,,1,0,0,0,0
110618-6,Arafa Zakhem,Arafa,Registered,2015-07-10T07:33:37.000Z,2015-07-10T07:33:37.000Z,Eastern Zone,Dar es Salaam,Temeke,Temeke MC,Mbagala Kuu,Kibondemaji B,Clinic - Dental Clinic,Operating,Private - For Profit,73330,,-6.91362,39.27055,04/07/2015,1,1,0,0,0
100171-8,Arafa-Kiparang'anda,Arafa Kiparang'anda,Registered,2013-08-20T10:24:11.000Z,2016-04-26T05:48:05.000Z,Eastern Zone,Pwani,Mkuranga,Mkuranga DC,Kiparang'anda,Kiparang'anda 'A',Dispensary,Operating,Private - Faith based organization (FBO),66001,,-7.14991,39.1803,20/04/1993,0,0,1,0,0
110778-8,Arafat Basna,Arafat Basna,Registered,2015-07-17T09:16:31.000Z,2019-08-03T15:14:15.000Z,Eastern Zone,Dar es Salaam,Ubungo,Ubungo MC,Mbezi,Msakuzi,Dispensary,Operating,Private - Faith based organization (FBO) - Bakwata,71377,,-6.76083,39.07319,04/09/2013,1,1,0,0,0
100173-4,Arash,Arash,Registered,2013-08-20T10:24:11.000Z,2019-11-27T13:37:53.000Z,Northern Zone,Arusha,Ngorongoro,Ngorongoro DC,Arash,Arash,Dispensary,Operating,Private - Faith based organization (FBO),28002,,-2.3769,35.50596,02/07/1977,0,0,1,0,0
111594-8,Arcs,Kwa Masanja,Registered,2016-12-20T11:28:18.000Z,2019-05-25T16:08:58.000Z,Southern Highlands Zone,Njombe,Njombe,Njombe TC,Mjimwema,Nazareti,Health Center,Operating,Private - For Profit,113208,,-9.352869,34.788176,07/08/2013,1,0,0,0,0
100174-2,Ardhi,,Registered,2013-08-20T10:24:11.000Z,2018-07-20T06:54:38.000Z,Western Zone,Tabora,Tabora,Tabora MC,Cheyo,Ikulu,Dispensary,Closed,Public - Parastatal,,,-5.04005,32.826,,1,0,0,0,0
100176-7,Ardhi Institute,,,2013-08-20T10:24:12.000Z,2015-07-03T11:16:17.000Z,Eastern Zone,Morogoro,Morogoro,Morogoro MC,Boma,Jumbe mtoto,Dispensary,Operating,Private - For Profit,,,-6.82639,37.67594,,0,0,0,0,0
108661-0,Ardhi University,UCLAS,Registered,2014-08-11T08:16:08.000Z,2015-07-11T06:58:39.000Z,Eastern Zone,Dar es Salaam,Kinondoni,Kinondoni MC,Makongo,Mlalakuwa,Dispensary,Operating,Public - Parastatal,71109,,-6.76674,39.213,15/07/1976,1,0,0,0,0
100179-1,Arkatan,ARKATAN,Registered,2013-08-20T10:24:12.000Z,2019-04-30T11:29:41.000Z,Northern Zone,Arusha,Monduli,Monduli DC,Sepeko,Arkatani,Dispensary,Operating,Public - LGA,100171-1,02-01-0126,-3.24778,36.1898,09/04/2003,0,0,1,0,0
114019-3,ARMI,,Registered,2020-02-05T12:39:44.000Z,2020-02-05T12:39:44.000Z,Eastern Zone,Dar es Salaam,Temeke,Temeke MC,Mianzini,Kibondemaji A,Dispensary,Operating,Private - For Profit,73425,,-6.91701,39.2793,27/05/2019,1,0,0,0,0
113140-8,Arofade,,Registered,2019-03-10T08:58:51.000Z,2019-05-09T19:56:16.000Z,Central Zone,Singida,Mkalama,Mkalama DC,Msingi,Not set,Health Labs - Level IA2 (Dispensary Laboratory),Operating,Private - For Profit,PHL-C/SGD/AUT/023,,-4.39048,34.56323,10/07/2017,0,0,1,0,0
100181-7,Aroma,,,2013-08-20T10:24:13.000Z,2016-09-07T12:33:37.000Z,Eastern Zone,Dar es Salaam,Kinondoni,Kinondoni MC,Not set,Not set,Dispensary,Closed,Private - For Profit,,,-6.81887,39.2405,,0,0,0,0,0
100182-5,Arri,,Registered,2013-08-20T10:24:13.000Z,2019-11-04T09:33:10.000Z,Northern Zone,Manyara,Mbulu,Mbulu DC,Yaeda Ampa,Yaeda Ampa,Dispensary,Operating,Public - LGA,,,-4.0125,35.428779,08/05/2001,0,0,1,0,0
100183-3,Arri Tsaayo,Arri Tsaayo,Registered,2013-08-20T10:24:13.000Z,2019-08-29T14:36:50.000Z,Northern Zone,Manyara,Babati,Babati DC,Arri,Tsaayo,Dispensary,Operating,Public - LGA,,21-01-0151,-4.24142,35.58945,28/09/2007,0,0,0,1,0
Not set,Arusha chini,Arusha chini,Not Registered,2015-07-14T10:21:01.000Z,2016-01-13T02:48:03.000Z,Southern Zone,Mtwara,Mtwara,Nanyamba TC,Chawi,Arusha,Dispensary,Pending Operation - Under Construction,Public - LGA,,,-10.606036,40.143931,,0,0,0,0,0
100187-4,Arusha Health Centre for Women,Kwa Dr Wanjara,Registered,2013-08-20T10:24:14.000Z,2017-11-02T14:58:36.000Z,Northern Zone,Arusha,Arusha,Arusha CC,Kaloleni,Mita mia mbili,Health Center,Operating,Private - For Profit,23208,02-03-0116,-3.36106,36.68535,13/10/2003,1,1,0,0,0
111965-0,Arusha Junior,,Registered,2018-01-16T15:31:02.000Z,2019-05-22T09:22:42.000Z,Northern Zone,Arusha,Arusha,Arusha CC,Levolosi,Levolos,Dispensary,Operating,Private - For Profit,PHL-C/AR/AUT/25,,-3.368606,36.681106,,0,0,0,0,0
100185-8,Arusha labaratory,Arusha labaratory Dispensary,Registered,2013-08-20T10:24:13.000Z,2019-08-22T10:01:51.000Z,Northern Zone,Arusha,Arusha,Arusha CC,Sekei,Not set,Dispensary,Operating,Private - For Profit,23054,,-3.37955,36.70607,03/04/1999,1,1,0,0,0
100188-2,Arusha Lutheran Center,,Registered,2013-08-20T10:24:14.000Z,2018-10-12T20:34:24.000Z,Northern Zone,Arusha,Arusha,Arusha CC,Levolosi,Levolos,Hospital - Referral Hospital at Regional Level,Operating,Private - Faith based organization (FBO),,02-03-0200,-3.36626,36.6823,,1,1,0,0,0
100189-0,Arusha Medical Centre,Kwa Dr Chamba,Registered,2013-08-20T10:24:14.000Z,2018-06-26T05:15:23.000Z,Northern Zone,Arusha,Arusha,Arusha CC,Themi,Corridor,Dispensary,Closed,Private - For Profit,102246,02-03-0101,-3.37636,36.698442,03/06/1994,1,1,0,0,0
100190-8,Arusha School,,Registered,2013-08-20T10:24:15.000Z,2019-09-16T06:06:36.000Z,Northern Zone,Arusha,Arusha,Arusha CC,Themi,Old Police line,Dispensary,Operating,Public - LGA,,,-3.3742,36.69426,01/07/1934,1,0,0,0,0
100192-4,Arusha X-ray Centre,,Registered,2013-08-20T10:24:15.000Z,2019-11-20T10:03:35.000Z,Northern Zone,Arusha,Arusha,Arusha CC,Sekei,AICC,Dispensary,Operating,Private - For Profit,,,-3.36579,36.699,06/09/1997,1,1,0,0,0
110944-6,AS CHALINZE,AS Chalinze,Registered,2015-10-02T12:35:20.000Z,2019-02-05T06:48:05.000Z,Eastern Zone,Pwani,Bagamoyo,Chalinze DC,Bwilingu,Bwilingu,Dispensary,Closed,Private - For Profit,65214,,-6.641251,38.356269,09/02/2015,0,0,0,0,0
111968-4,ASA,,Registered,2018-01-16T15:20:34.000Z,2019-05-29T03:11:23.000Z,Northern Zone,Arusha,Arusha,Arusha DC,Kiranyi,Ilkiurei,Health Labs - Level IA2 (Dispensary Laboratory),Operating,Private - For Profit,PHL-C/AR/AUT/22,,-3.360007,36.683823,,1,0,0,0,0
100193-2,Asamatwa,Asamatwa,Registration Pending Certification,2013-08-20T10:24:15.000Z,2019-11-28T16:27:05.000Z,Northern Zone,Manyara,Kiteto,Kiteto DC,Sunya,Asamato,Dispensary,Operating,Public - LGA,,,-5.67291,37.03888,05/07/2014,0,0,0,1,0
100194-0,Asanje,Asanje,Registered,2013-08-20T10:24:16.000Z,2019-05-08T02:29:57.000Z,Central Zone,Dodoma,Bahi,Bahi DC,Babayu,Asanje,Dispensary,Operating,Public - LGA,100194-0,01-06-0124,-5.734873,35.72171,28/04/2005,0,0,1,0,0
100195-7,Asante Nyerere,Zahanati ya Asante Nyerere,Registered,2013-08-20T10:24:16.000Z,2018-01-02T07:02:16.000Z,Western Zone,Kigoma,Kasulu,Kasulu DC,Asante Nyerere,Asante Nyerere,Dispensary,Operating,Public - LGA,,,-4.866151,30.348197,01/09/2012,0,0,1,0,0
112851-1,Asante optical centre,Asante,Registered,2019-02-28T13:56:53.000Z,2019-05-04T16:13:30.000Z,Central Zone,Dodoma,Dodoma,Dodoma MC,Madukani,Sululu,Clinic - Optometry Clinic,Operating,Private - For Profit,170,,-6.17814,35.74485,05/07/2018,1,0,0,0,0
113653-0,ASH,,Registered,2019-05-31T05:15:18.000Z,2019-05-31T05:15:18.000Z,Northern Zone,Arusha,Arusha,Arusha DC,Kiutu,Sekei,Health Labs - Level IA2 (Dispensary Laboratory),Operating,Private - For Profit,PHL-C/AR/AUT/25.,,-3.360947,36.710705,,1,0,0,0,0
102374-6,Ashe engai RC,Karansi,Registered,2013-08-20T10:31:54.000Z,2019-05-07T15:26:17.000Z,Northern Zone,Kilimanjaro,Siha,Siha DC,Karansi,Karansi,Health Center,Operating,Private - Faith based organization (FBO),35218,,-3.18129,37.01931,01/01/2019,1,1,1,0,0
113656-3,Ashengai,,Registration Pending Certification,2019-05-31T06:53:09.000Z,2019-05-31T06:53:09.000Z,Northern Zone,Arusha,Arusha,Arusha DC,Kisongo,Ilkerin,Health Labs - Level IA2 (Dispensary Laboratory),Operating,Private - For Profit,,,-3.384935,36.588841,,1,0,0,0,0
112267-0,ASSEY,KWA ASSEY MSIKITINI,Registered,2018-06-06T09:20:53.000Z,2019-07-18T11:15:03.000Z,Eastern Zone,Morogoro,Mvomero,Mvomero DC,Diongoya,Manyinga,Dispensary,Operating,Private - For Profit,52217,,-6.142705,37.616278,,1,0,1,0,0
100197-3,Atta,,,2013-08-20T10:24:16.000Z,2015-06-30T06:37:45.000Z,Central Zone,Dodoma,Kondoa,Kondoa DC,Kisese,Atta,Dispensary,Operating,Public - LGA,,,-4.527112,35.903687,,0,0,0,0,0
105003-8,Atukuzwe Juu,Appostles of Jesus,Registered,2013-08-20T10:41:49.000Z,2019-08-06T09:05:16.000Z,Eastern Zone,Dar es Salaam,Temeke,Temeke MC,Mianzini,Mchikichini,Dispensary,Operating,Private - For Profit,,,-6.92112,39.27518,,0,0,0,0,0
110873-7,Aveti,,Not Registered,2015-08-21T07:35:23.000Z,2015-08-21T08:31:43.000Z,Northern Zone,Arusha,Arusha,Arusha CC,Kaloleni,Kaloleni Mashariki,Dispensary,Operating,Private - For Profit,,,-3.36314,36.69035,,1,0,0,0,0
100200-5,Aviation,Aviation,Registered,2013-08-20T10:24:17.000Z,2019-11-15T06:10:47.000Z,Eastern Zone,Dar es Salaam,Ilala,Ilala MC,Ilala,Shariff Shamba,Dispensary,Operating,Private - For Profit,72021,,-6.82779,39.25728,13/06/2000,1,0,0,0,0
110813-3,Aviceena,Kwa Dr.Karim,Registered,2015-07-21T03:56:47.000Z,2019-11-15T06:12:28.000Z,Eastern Zone,Dar es Salaam,Ilala,Ilala MC,Upanga Magharibi,Mfaume,Clinic - General Clinic,Operating,Private - For Profit,72334,,-6.809568,39.276521,11/07/2005,1,0,0,0,0
113552-4,Avinta Care,,Registered,2019-04-08T13:16:39.000Z,2019-05-22T09:24:19.000Z,Northern Zone,Arusha,Arusha,Arusha CC,Sekei,Mahakama,Health Labs - Level IA2 (Dispensary Laboratory),Operating,Private - For Profit,PHL-C/ARS/AUT/064,,-3.376225,36.702409,,0,0,0,0,0
100202-1,Ayalabe,,Not Registered,2013-08-20T10:24:17.000Z,2019-11-06T13:11:51.000Z,Northern Zone,Arusha,Karatu,Karatu DC,Ganako,Ayalabe,Dispensary,Operating,Public - LGA,,,-3.35739,35.689692,05/08/2005,0,0,0,0,0
100204-7,Azania,Azania,Registered,2013-08-20T10:24:17.000Z,2018-01-22T10:43:04.000Z,Eastern Zone,Dar es Salaam,Kinondoni,Kinondoni MC,Kigogo,Mbuyuni,Dispensary,Operating,Private - For Profit,71151,,-6.81638,39.25362,01/01/2015,1,1,0,0,0
100205-4,Azimio,Azimio,Registered,2013-08-20T10:24:18.000Z,2018-10-25T05:09:50.000Z,Western Zone,Tabora,Uyui,Uyui DC,Usagari,Azimio,Dispensary,Operating,Public - LGA,,,-4.85505,32.4751,,0,0,0,0,0
100207-0,Azimio,Azimio,,2013-08-20T10:24:18.000Z,2018-05-01T12:32:05.000Z,Southern Zone,Ruvuma,Tunduru,Tunduru DC,Mtina,Azimio,Dispensary,Operating,Public - LGA,,,-11.17379,37.2627,,0,0,1,0,0
111623-5,B & B Eye Centre,Zera Complex,Registered,2016-12-28T07:01:14.000Z,2019-08-06T09:10:36.000Z,Eastern Zone,Dar es Salaam,Temeke,Temeke MC,Miburani,Wailes,Clinic - Optometry Clinic,Operating,Private - For Profit,90,,-6.86688,39.27486,31/05/2012,1,0,0,0,0
111938-7,B and B,,Registered,2017-11-29T10:07:44.000Z,2017-11-29T10:07:44.000Z,Eastern Zone,Dar es Salaam,Ubungo,Ubungo MC,Goba,Goba,Clinic - Other Clinic,Operating,Private - For Profit,,,-6.74133,39.16882,01/09/2017,1,1,0,0,0
112618-4,B&B,B&B,Registered,2019-02-28T19:30:33.000Z,2019-08-21T19:49:10.000Z,Southern Highlands Zone,Mbeya,Rungwe,Rungwe DC,Isongole,Ndaga,Health Labs - Level III single purpose Health Laboratory,Closed,Private - For Profit,phl-c/mby/aut/019,,-9.06905,33.57509,,0,0,0,0,0
100419-1,B.A.P Swaminarayan,Swaminarayan,Registered,2013-08-20T10:25:01.000Z,2019-11-15T06:14:27.000Z,Eastern Zone,Dar es Salaam,Ilala,Ilala MC,Kisutu,Kisutu,Dispensary,Operating,Private - Faith based organization (FBO),72264,,-6.814639,39.284997,03/01/2000,1,1,0,0,0
113326-3,B.M.A,,Registered,2019-03-27T17:53:45.000Z,2019-06-07T17:56:56.000Z,Lake Zone,Mwanza,Ilemela,Ilemela MC,Nyakato,Not set,Health Labs - Level IA2 (Dispensary Laboratory),Operating,Private - For Profit,PHL-C/MWZ/AUT/024,,-2.532512,32.947494,,0,0,0,0,0
100211-2,Babati,Mrara,Registered,2013-08-20T10:24:19.000Z,2015-08-25T10:04:35.000Z,Northern Zone,Manyara,Babati,Babati TC,Babati,Mrara,Hospital - District Hospital,Operating,Public - LGA,,,-4.2093,35.75929,,1,1,0,0,0
112033-6,Babati,,Registered,2018-01-23T08:12:38.000Z,2019-06-04T14:11:20.000Z,Northern Zone,Manyara,Babati,Babati TC,Babati,Old,Health Labs - Level IA2 (Dispensary Laboratory),Operating,Private - For Profit,PHL-C/MNR/AUT/01,,-4.21287,35.75005,,1,0,0,0,0
107067-1,Babati Roman catholic,mission,Registered,2013-08-20T10:50:13.000Z,2018-10-23T15:39:37.000Z,Northern Zone,Manyara,Babati,Babati TC,Bagara,Negamsi,Dispensary,Operating,Private - Faith based organization (FBO) - Catholic,25002,21-01-0107,-4.21125,35.74022,,1,0,0,0,0
100215-3,Babayu,Babayu,Registered,2013-08-20T10:24:20.000Z,2019-03-08T19:49:18.000Z,Central Zone,Dodoma,Bahi,Bahi DC,Babayu,Babayu,Dispensary,Operating,Public - LGA,,01-06-0106,-5.638693,35.703269,08/11/2000,0,0,1,0,1
100214-6,Babayu,BABAYU,Registered,2013-08-20T10:24:20.000Z,2019-08-20T14:09:10.000Z,Central Zone,Dodoma,Chemba,Chemba DC,Makorongo,Babayu,Dispensary,Operating,Public - LGA,,,-5.626108,35.703579,,0,0,1,0,0
112909-7,Badawi optical center,,Registered,2019-03-07T11:27:12.000Z,2019-05-29T03:20:59.000Z,Lake Zone,Kagera,Bukoba,Bukoba MC,Bilele,Uhuru,Clinic - Optometry Clinic,Closed (Temporary),Private - For Profit,126,,-1.33076,31.81223,09/02/2016,0,0,0,0,0
105650-6,Badi,Muhida,,2013-08-20T10:44:22.000Z,2017-12-22T06:41:03.000Z,Western Zone,Simiyu,Maswa,Maswa DC,Badi,Muhida,Dispensary,Operating,Public - LGA,,,-3.23001,33.519,,1,0,0,0,0
109245-1,Badi,Badi,Not Registered,2014-12-17T10:23:30.000Z,2019-05-21T08:50:07.000Z,Western Zone,Shinyanga,Kishapu,Kishapu DC,Mwakipoya,Not set,Dispensary,Operating,Public - LGA,109245,17-08-0110,-3.60581,33.99642,01/07/1952,1,0,0,0,0
112815-6,Badosele Medical,,Registered,2019-03-07T06:08:25.000Z,2019-08-28T11:07:22.000Z,Lake Zone,Mwanza,Nyamagana,Nyamagana MC,Mahina,Mahina,Dispensary,Operating,Private - For Profit,193690,,-2.54364,32.95646,14/05/2018,0,0,0,0,0
100218-7,Badugu,Badugu,Registered,2013-08-20T10:24:20.000Z,2019-05-08T01:48:33.000Z,Western Zone,Simiyu,Busega,Busega DC,Badugu,Badugu,Dispensary,Operating,Public - LGA,106602-6,19-02-0114,-2.480091,33.678768,,1,0,0,0,0
100220-3,Baga,Baga,Registered,2013-08-20T10:24:21.000Z,2019-01-07T09:09:15.000Z,Northern Zone,Tanga,Lushoto,Bumbuli DC,Baga,Baga,Dispensary,Operating,Public - LGA,100220-3,,-4.7721,38.42585,,1,0,0,0,0
100221-1,Bagamoyo,Bagamoyo Distr Hospital,Registered,2013-08-20T10:24:21.000Z,2019-09-20T14:03:16.000Z,Eastern Zone,Pwani,Bagamoyo,Bagamoyo DC,Dunda,Dunda,Hospital - District Hospital,Operating,Public - LGA,,06-01-0100,-6.437181,38.907161,30/03/1914,1,1,1,0,0
111372-9,Bagamoyo Mental Health,Mental clinic,Registered,2016-04-21T12:56:41.000Z,2017-08-01T13:37:23.000Z,Northern Zone,Tanga,Korogwe,Korogwe TC,Kilole,Kwanduli,Clinic - Other Clinic,Operating,Private - For Profit,,,-5.17943,38.443036,01/07/2015,0,0,1,0,0
100225-2,Bago,Bago,Registered,2013-08-20T10:24:22.000Z,2019-05-28T09:46:16.000Z,Northern Zone,Tanga,Muheza,Muheza DC,Kigombe,Kigombe,Dispensary,Operating,Private - Faith based organization (FBO),,,-5.33036,39.03235,05/03/2009,1,1,0,0,0
113309-9,Bahama,,Registered,2019-03-27T17:39:00.000Z,2019-05-28T17:34:15.000Z,Lake Zone,Mwanza,Nyamagana,Nyamagana MC,Isamilo,Not set,Health Labs - Level IA2 (Dispensary Laboratory),Operating,Private - For Profit,PHL-C/MWZ/AUT/05,,-2.514057,32.899809,,0,0,0,0,0
100227-8,Bahi,Bahi HC,Registered,2013-08-20T10:24:22.000Z,2019-08-06T06:54:22.000Z,Central Zone,Dodoma,Bahi,Bahi DC,Bahi,Bahi Sokoni,Health Center,Operating,Public - LGA,,01-03-0101,-5.96258,35.312075,01/02/1930,1,0,1,0,1
Not set,Bahi,Bahi District Hospital,Not Registered,2020-01-24T13:36:51.000Z,2020-01-24T13:36:51.000Z,Central Zone,Dodoma,Bahi,Bahi DC,Bahi,Not set,Hospital - District Hospital,Pending Operation - Construction Complete,Public - LGA,,,-6.45678,38.2145,,1,0,0,0,0
100228-6,Bahi Makulu,Bahi makulu,Registered,2013-08-20T10:24:22.000Z,2019-03-08T19:50:42.000Z,Central Zone,Dodoma,Bahi,Bahi DC,Mpamantwa,Bahi Makulu,Dispensary,Operating,Public - LGA,,01-06-0125,-6.049775,35.350335,01/09/2012,1,0,1,0,1
100229-4,Bahi RC,Bahi RC,Registered,2013-08-20T10:24:23.000Z,2018-04-13T09:57:19.000Z,Central Zone,Dodoma,Bahi,Bahi DC,Bahi,Bahi Sokoni,Dispensary,Operating,Private - Faith based organization (FBO),,,-5.94521,35.312127,13/08/1974,1,0,0,0,1
109193-3,Bahimba,,Registered,2014-11-12T13:02:45.000Z,2017-01-20T07:09:54.000Z,Lake Zone,Geita,Chato,Chato DC,Nyamirembe,Kalebezo,Dispensary,Closed (Temporary),Private - For Profit,,,-2.529142,31.693245,,0,0,1,0,0
100231-0,Bakwata,,,2013-08-20T10:24:23.000Z,2015-08-12T07:02:41.000Z,Central Zone,Dodoma,Mpwapwa,Mpwapwa DC,Mpwapwa Mjini,Mpwapwa Mjini,Dispensary,Closed,Private - Faith based organization (FBO),,,-6.34739,36.48983,,0,0,0,0,0
100234-4,Bakwata,,,2013-08-20T10:24:24.000Z,2015-02-23T06:33:56.000Z,Central Zone,Singida,Manyoni,Manyoni DC,Manyoni,Not set,Dispensary,Closed,Private,,,-5.74642,34.83569,,0,0,0,0,0
100240-1,Bakwata,Bakwata Dispensary,Registered,2013-08-20T10:24:25.000Z,2018-08-28T06:28:33.000Z,Western Zone,Kigoma,Kibondo,Kibondo DC,Kibondo,Kibondo,Dispensary,Closed,Private - Faith based organization (FBO),Kibondo,,-3.58555,30.71802,01/01/1993,0,1,0,0,0
100250-0,Bakwata,Bakwata,,2013-08-20T10:24:27.000Z,2014-11-04T08:05:23.000Z,Northern Zone,Manyara,Babati,Babati DC,Gallapo,Not set,Dispensary,Closed,Private,,,-4.17198,35.5125,,0,0,0,0,0
103316-6,Bakwata,Bawakta,Registered,2013-08-20T10:35:21.000Z,2019-05-01T13:08:33.000Z,Northern Zone,Tanga,Korogwe,Korogwe TC,Manundu,Mbeza,Health Labs,Operating,Private - Faith based organization (FBO),327,,-5.155129,38.448722,10/07/2003,1,0,0,0,0
111208-5,Bakwata,KWA DR.NYAGA,Registered,2015-11-26T09:25:12.000Z,2019-06-02T20:25:27.000Z,Western Zone,Tabora,Igunga,Igunga DC,Igunga,Igunga,Dispensary,Operating,Private - For Profit,142003,,-4.28703,33.880255,06/09/1997,1,1,0,0,0
100249-2,Bakwata,,Registered,2013-08-20T10:24:27.000Z,2019-06-12T01:27:12.000Z,Southern Zone,Lindi,Kilwa,Kilwa DC,Masoko,Masoko,Dispensary,Closed,Private - Faith based organization (FBO),,,-8.929752,39.515791,,0,0,0,0,0
109449-9,Bakwata,Bakwata,Registered,2015-03-27T09:44:08.000Z,2019-08-26T09:34:48.000Z,Lake Zone,Mwanza,Magu,Magu DC,Magu Mjini,Ibidanja,Dispensary,Operating,Private - For Profit,,,-2.59068,33.43637,01/07/1991,1,0,0,0,0
100232-8,Bakwata Majengo,"Dr, Gedi",Registered,2013-08-20T10:24:23.000Z,2019-06-01T11:50:36.000Z,Western Zone,Shinyanga,Kahama,Kahama TC,Majengo,Majengo,Dispensary,Operating,Private - For Profit,174019,,-3.82569,32.60182,05/12/1997,1,0,0,0,0
100253-4,Bakwata - Mang'ula,BAKWATA,,2013-08-20T10:24:27.000Z,2018-06-26T05:21:30.000Z,Eastern Zone,Morogoro,Kilombero,Kilombero DC,Mwaya,Mwaya,Dispensary,Closed,Private - Faith based organization (FBO),,,-7.85963,36.90008,,0,0,0,0,0
100282-3,Bakwata Chang'ombe,Bakwata Chang'ombe dispensary,Registered,2016-01-21T16:31:43.000Z,2019-11-14T12:44:08.000Z,Eastern Zone,Dar es Salaam,Ilala,Ilala MC,Kivule,Kivule,Dispensary,Operating,Private - For Profit,,,-6.91818,39.18647,01/09/2010,1,0,0,0,0
110065-0,Bakwata Jomu,Bakwata Didia,Registered,2015-05-26T12:29:57.000Z,2019-02-26T06:41:08.000Z,Western Zone,Shinyanga,Shinyanga,Shinyanga DC,Didia,Didia,Dispensary,Operating,Private - Faith based organization (FBO),24,,-3.82703,33.0733,06/09/1997,1,0,0,0,0
112260-5,Bakwata Kichemchem,,Registered,2018-06-06T07:46:31.000Z,2018-06-22T06:02:45.000Z,Eastern Zone,Dar es Salaam,Temeke,Temeke MC,Mbagala Kuu,Kichemchem,Dispensary,Operating,Private - For Profit,73401,,-6.91374,39.28494,01/01/2018,1,0,0,0,0
100272-4,Bakwata Mbika,Mbika,Registered,2013-08-20T10:24:31.000Z,2019-05-22T11:55:24.000Z,Western Zone,Shinyanga,Kahama,Ushetu DC,Ushetu,Mbika,Dispensary,Operating,Private - For Profit,174209,17-04-0141,-4.18819,32.2451,26/10/2009,0,0,0,0,1
111530-2,Bakwata Mianzini,,Registered,2016-10-17T06:09:51.000Z,2017-05-22T12:27:12.000Z,Eastern Zone,Dar es Salaam,Temeke,Temeke MC,Mianzini,Machinjioni,Dispensary,Operating,Private - For Profit,73355,,-6.93278,39.25713,15/07/2015,1,0,0,0,0
100274-0,Bakwata Mikoroshini,,,2013-08-20T10:24:32.000Z,2015-08-13T05:44:06.000Z,Eastern Zone,Dar es Salaam,Kinondoni,Kinondoni MC,Msasani,Mikoroshini,Dispensary,Closed,Private - For Profit,,,-6.78203,39.2444,,0,0,0,0,0
100275-7,Bakwata Msasani-Nassor,,,2013-08-20T10:24:32.000Z,2015-08-13T05:42:23.000Z,Eastern Zone,Dar es Salaam,Kinondoni,Kinondoni MC,Msasani,Bonde la Mpunga,Dispensary,Closed,Private - For Profit,,,-6.76634,39.2644,,0,0,0,0,0
111134-3,Bakwata Muganza,,Registered,2015-11-18T11:56:32.000Z,2017-11-13T17:39:06.000Z,Lake Zone,Geita,Chato,Chato DC,Muganza,Muganza,Dispensary,Closed (Temporary),Private - Faith based organization (FBO),,,-2.372178,31.732693,,0,0,0,0,0
100236-9,Bakwata Njia Panda,Bakwata Njia Panda,Registered,2013-08-20T10:24:24.000Z,2019-05-22T14:55:22.000Z,Northern Zone,Kilimanjaro,Moshi,Moshi DC,Kilema Kusini,Kilototoni,Dispensary,Operating,Private - Faith based organization (FBO),34210,,-3.40915,37.51853,10/06/2008,1,0,0,0,0
112163-1,Bakwata Nyahanga,Zahanati,Registered,2018-04-03T06:56:10.000Z,2019-06-01T11:51:56.000Z,Western Zone,Shinyanga,Kahama,Kahama TC,Majengo,Majengo,Dispensary,Operating,Private - For Profit,174201,,-3.82229,32.60527,04/07/2017,1,1,0,0,0
100278-1,Bakwata Sadala,,Registered,2013-08-20T10:24:33.000Z,2015-08-20T08:29:23.000Z,Northern Zone,Kilimanjaro,Hai,Hai DC,Masama Kusini,Not set,Dispensary,Closed (Temporary),Private - Faith based organization (FBO),,,-3.30762,37.19968,01/01/2010,0,0,0,0,0
100279-9,BAKWATA Segese,,Registered,2013-08-20T10:24:33.000Z,2019-12-30T10:44:09.000Z,Western Zone,Shinyanga,Kahama,Msalala DC,Isaka,Isaka,Dispensary,Closed,Private - For Profit,,,-3.53039,32.4202,12/09/2016,1,1,0,0,0
100248-4,BAKWATA SHAMSIYA,Bakwata buseresere,Registered,2013-08-20T10:24:26.000Z,2019-10-14T05:27:03.000Z,Lake Zone,Geita,Chato,Chato DC,Buseresere,Buseresere,Dispensary,Operating,Private - Faith based organization (FBO),,,-3.002824,31.921159,08/07/2009,0,0,1,0,0
100280-7,Bakwata Str. 11,Bakwata,Registered,2013-08-20T10:24:33.000Z,2019-09-11T10:22:27.000Z,Northern Zone,Tanga,Tanga,Tanga CC,Ngamiani Kaskazini,Makoko,Dispensary,Closed (Temporary),Private - Faith based organization (FBO),,,-5.07968,39.10202,,1,0,0,0,0
100254-2,Bakwata Tandika,,,2013-08-20T10:24:28.000Z,2015-07-11T08:51:48.000Z,Eastern Zone,Dar es Salaam,Temeke,Temeke MC,Tandika,Nyambwera,Dispensary,Closed,Private - Faith based organization (FBO),,,-6.8589,39.2551,,0,0,0,0,0
111883-5,Bakwata Tungi,Tungi Bakwata,Registered,2017-10-12T10:33:54.000Z,2019-11-22T11:42:20.000Z,Eastern Zone,Dar es Salaam,Kigamboni,Kigamboni MC,Tungi,Tungi,Dispensary,Operating,Private - For Profit,73361,,-6.83703,39.31889,05/03/2015,1,1,0,0,0
100285-6,Bakwata Ulyankulu,BAKWATA,Registered,2013-08-20T10:24:34.000Z,2019-05-28T17:20:15.000Z,Western Zone,Tabora,Kaliua,Kaliua DC,Kanindo,Mapigano,Dispensary,Closed,Private - For Profit,,,-4.628611,32.165521,01/01/2010,0,0,1,0,0
111220-0,Bakwata Usanda,Bakwata Usanda,Registration Suspended,2015-11-26T13:40:33.000Z,2019-02-26T08:21:38.000Z,Western Zone,Shinyanga,Shinyanga,Shinyanga DC,Usanda,Singita,Dispensary,Closed,Private - Faith based organization (FBO),1220,,-3.83617,33.27869,,0,0,0,0,0
112245-6,Bakwata Vijibweni,soweto dispensary,Registered,2018-05-22T08:41:33.000Z,2018-05-22T08:41:33.000Z,Eastern Zone,Dar es Salaam,Kigamboni,Kigamboni MC,Vijibweni,Majengo,Dispensary,Operating,Private - Faith based organization (FBO) - Bakwata,73397,,-6.86995,39.30967,01/05/2018,1,0,1,0,0
110516-2,Bakwata Yombo Darajani,Bakwata Kilakala,Registered,2015-07-08T12:20:12.000Z,2019-06-12T01:11:48.000Z,Eastern Zone,Dar es Salaam,Temeke,Temeke MC,Kilakala,Kilakala,Dispensary,Operating,Private - Faith based organization (FBO),73357,,-6.86846,39.24673,,1,0,0,0,0
100287-2,Balang'a,Balang'a,Registered,2013-08-20T10:24:35.000Z,2018-06-20T11:20:34.000Z,Northern Zone,Tanga,Kilindi,Kilindi DC,Kisangasa,Balang'a,Dispensary,Operating,Public - LGA,,,-5.31329,37.57582,,0,0,1,0,0
100288-0,Balangdalalu,Balangdalalu,Registered,2013-08-20T10:24:35.000Z,2019-11-15T09:49:16.000Z,Northern Zone,Manyara,Hanang,Hanang DC,Balangidalalu,Balang'dalalu,Health Center,Operating,Private - Faith based organization (FBO),,,-4.64209,35.2756,05/07/1962,1,0,0,0,0
100289-8,Balatogwa,Balatogwa Dispensary,Registered,2013-08-20T10:24:35.000Z,2019-09-19T10:23:32.000Z,Lake Zone,Mwanza,Sengerema,Sengerema DC,Mwabaluhi,Balatoga,Dispensary,Operating,Public - LGA,,,-2.70638,32.64912,03/08/2001,0,0,1,0,0
100290-6,Baleni,Baleni,Registered,2013-08-20T10:24:35.000Z,2019-09-19T10:35:10.000Z,Eastern Zone,Pwani,Mafia,Mafia DC,Baleni,Baleni,Dispensary,Operating,Public - LGA,65004,06-06-0104,-7.873031,39.806575,15/07/1965,0,1,1,0,0
104200-1,Bama Beba,,Registered,2013-08-20T10:38:42.000Z,2019-05-02T19:49:03.000Z,Northern Zone,Arusha,Arusha,Arusha CC,Levolosi,Levolos,Dispensary,Closed,Private - For Profit,,,-3.36686,36.681,,1,0,0,0,0
112402-3,Bama-Tunza Mtoto,Bama-Tunza Mtoto,Registered,2018-10-22T12:07:09.000Z,2018-10-23T06:53:10.000Z,Lake Zone,Geita,Geita,Geita DC,Lwamgasa,Lwamgasa,Maternity Home,Operating,Private - For Profit,118,,-3.11726,32.04456,28/06/2018,1,1,0,0,0
113407-1,Bamba,,Registration Pending Certification,2019-03-25T15:58:14.000Z,2019-08-23T10:38:34.000Z,Eastern Zone,Morogoro,Morogoro,Morogoro DC,Kiroka,Bamba,Dispensary,Operating,Public - LGA,,,-6.8363,37.78152,,0,0,0,0,0
100295-5,Bamba Mavengero,Bamba mavengero,Registered,2013-08-20T10:24:36.000Z,2019-11-28T09:41:45.000Z,Northern Zone,Tanga,Mkinga,Mkinga DC,Mhinduro,Bambamavengero,Dispensary,Operating,Public - LGA,100295-5,,-4.97254,38.7966,09/11/2013,1,0,0,0,1
100296-3,Bamboo Hannanasif,,,2013-08-20T10:24:36.000Z,2015-08-13T05:37:44.000Z,Eastern Zone,Dar es Salaam,Kinondoni,Kinondoni MC,Hananasif,Hananasif,Dispensary,Closed,Private - For Profit,,,-6.79391,39.2651,,0,0,0,0,0
108586-9,Bamita,Bamita,Not Registered,2014-05-22T07:11:30.000Z,2016-04-21T13:24:09.000Z,Eastern Zone,Pwani,Kisarawe,Kisarawe DC,Kisarawe,Kisarawe,Clinic,Closed,Private - Faith based organization (FBO),,,-6.90974,39.07042,27/04/1991,1,0,0,0,0
100300-3,Bamita,BAMITA,Registered,2013-08-20T10:24:37.000Z,2015-08-17T07:09:38.000Z,Western Zone,Tabora,Tabora,Tabora MC,Gongoni,Zimzmoto,Dispensary,Closed,Private,,,-5.01748,32.81439,,0,0,0,0,0
100301-1,Bamita,Bamita,Registered,2013-08-20T10:24:37.000Z,2019-08-03T18:23:46.000Z,Eastern Zone,Pwani,Rufiji,Kibiti DC,Bungu,Bungu A,Dispensary,Operating,Private - For Profit,,,-7.631368,39.059732,27/04/1991,1,0,0,0,0
100302-9,Banawanu,Banawanu,Registered,2013-08-20T10:24:38.000Z,2019-11-13T08:49:46.000Z,Southern Highlands Zone,Njombe,Wanging'ombe,Wanging'ombe DC,Ilembula,Banawanu,Dispensary,Operating,Public - LGA,100302-9,,-8.950625,34.715227,08/04/2014,0,0,0,1,0
100304-5,Bandari,Bandari,Registered,2013-08-20T10:24:38.000Z,2019-05-29T11:44:55.000Z,Northern Zone,Tanga,Tanga,Tanga CC,Central,Central,Dispensary,Operating,Public - Parastatal,,,-5.07008,39.10501,,1,0,0,0,0
100305-2,Bandari,Bandari Hralth Centre,Registered,2013-08-20T10:24:38.000Z,2019-08-06T09:13:21.000Z,Eastern Zone,Dar es Salaam,Temeke,Temeke MC,Kurasini,Mivinjeni,Health Center,Operating,Public - Parastatal,73003,,-6.832175,39.28889,12/10/1978,1,1,0,0,0
100306-0,Banemhi,Banemhi,Registered,2013-08-20T10:24:38.000Z,2019-05-29T03:28:40.000Z,Western Zone,Simiyu,Bariadi,Bariadi DC,Mwadobana,Banemhi,Dispensary,Operating,Public - LGA,,,-2.62339,34.0455,,0,0,1,0,0
100307-8,Bangalala,Bangalala,Not Registered,2013-08-20T10:24:39.000Z,2018-05-07T09:03:12.000Z,Northern Zone,Kilimanjaro,Same,Same DC,Mwembe,Bangalala,Dispensary,Operating,Public - LGA,100307-8,03-03-0108,-4.23113,37.8482,01/01/1979,1,0,0,0,0
100308-6,Bangata,Sasi,Registered,2013-08-20T10:24:39.000Z,2016-01-06T07:43:13.000Z,Northern Zone,Arusha,Arusha,Arusha DC,Bangata,Sasi,Dispensary,Operating,Public - LGA,,,-3.35845,36.74753,,1,0,0,0,0
100309-4,Bangata Lutheran,,Registered,2013-08-20T10:24:39.000Z,2017-07-19T04:48:14.000Z,Northern Zone,Arusha,Arusha,Arusha DC,Bangata,Midawe,Dispensary,Operating,Private - Faith based organization (FBO),,,-3.33582,36.74476,,1,0,0,0,0
113897-3,Bangulo,Zahanati ya Bangulo,Registered,2019-12-30T09:54:18.000Z,2020-01-16T13:22:26.000Z,Eastern Zone,Dar es Salaam,Ilala,Ilala MC,Pugu,Pugu station,Dispensary,Operating,Public - LGA,,,-6.86854,39.12851,03/10/2019,0,0,0,1,1
100310-2,Bangwe,Bangwe,Registered,2013-08-20T10:24:39.000Z,2018-07-02T09:10:05.000Z,Western Zone,Kigoma,Kigoma,Kigoma Ujiji MC,Bangwe,Buteko,Dispensary,Operating,Public - LGA,,,-4.906827,29.613642,,1,0,0,0,0
111830-6,Bangwe Road,Bangwe Road Disp,Registered,2017-08-09T12:16:03.000Z,2017-08-09T12:16:03.000Z,Western Zone,Kigoma,Kigoma,Kigoma Ujiji MC,Kigoma,Shede,Dispensary,Operating,Private - Faith based organization (FBO),,,-4.87942,29.62834,13/06/2017,0,0,0,0,0
100312-8,Banja,Banja,Registered,2013-08-20T10:24:40.000Z,2019-09-19T10:30:16.000Z,Eastern Zone,Pwani,Mafia,Mafia DC,Kirongwe,Banja,Dispensary,Operating,Public - LGA,65003,,-7.763076,39.822582,14/04/1982,0,1,1,0,0
112918-8,Bank of Tanzania,,Registered,2019-03-07T11:46:39.000Z,2019-05-22T09:26:13.000Z,Northern Zone,Arusha,Arusha,Arusha CC,Sekei,Goliondoi,Clinic - Medical Clinic,Operating,Public - Parastatal,23319,,-3.369513,36.693254,09/10/2018,0,0,0,0,0
100313-6,Bank of Tanzania,,Registered,2013-08-20T10:24:40.000Z,2019-11-30T06:08:09.000Z,Lake Zone,Mwanza,Nyamagana,Nyamagana MC,Mirongo,Uhuru,Clinic - Other Clinic,Closed,Public - Parastatal,,,-2.51775,32.9066,,0,0,0,0,0
100210-4,Bank Of Tanzania HQ,B.O.T Clinic,Registered,2013-08-20T10:24:19.000Z,2019-11-12T08:42:32.000Z,Eastern Zone,Dar es Salaam,Ilala,Ilala MC,Kivukoni,Kivukoni,Dispensary,Operating,Public - Parastatal,,,-6.81464,39.29298,01/01/1968,1,0,0,0,0
100315-1,Bankolo,Bankolo,Registered,2013-08-20T10:24:40.000Z,2018-04-13T09:52:12.000Z,Central Zone,Dodoma,Bahi,Bahi DC,Lamaiti,Bankolo,Dispensary,Operating,Public - LGA,,01-06-0126,-5.838545,35.451914,11/05/2008,0,0,1,0,1
100316-9,Banyibanyi,Banyibanyi,Registered,2013-08-20T10:24:40.000Z,2015-12-14T03:56:28.000Z,Central Zone,Dodoma,Kongwa,Kongwa DC,Hogoro,Banyibanyi,Dispensary,Operating,Public - LGA,,,-5.884558,36.339643,01/03/1973,0,0,0,1,0
100341-7,Baobab,Baobab Disp,Registered,2013-08-20T10:24:46.000Z,2018-04-23T12:17:52.000Z,Eastern Zone,Pwani,Bagamoyo,Bagamoyo DC,Kerege,Mapinga,Dispensary,Operating,Private - For Profit,61209,,-6.606654,39.068475,05/04/2010,1,1,0,0,0
100318-5,Baptist,Baptist Hospital,Registered,2013-08-20T10:24:41.000Z,2018-09-27T09:45:38.000Z,Western Zone,Kigoma,Kigoma,Kigoma Ujiji MC,Katubuka,Uwanja wa Ndege,Hospital - Council Designated Hospital,Operating,Private - Faith based organization (FBO) - Baptist/SDA,,,-4.885428,29.658572,09/09/1995,0,1,0,0,0
100319-3,Bara,Bara,Registered,2013-08-20T10:24:41.000Z,2019-11-14T12:13:09.000Z,Southern Highlands Zone,Songwe,Mbozi,Mbozi DC,Bara,Bara,Dispensary,Operating,Private - Faith based organization (FBO),100319-3,,-8.80282,32.8031,22/03/1999,0,0,1,0,0
109973-8,Bara B,Bara B,Registered,2015-04-29T12:15:48.000Z,2020-01-28T15:46:03.000Z,Southern Highlands Zone,Songwe,Mbozi,Mbozi DC,Bara,Bara,Dispensary,Operating,Public - LGA,109973-8,,-8.80888,32.79915,20/06/2019,0,0,1,0,0
113551-6,Baraa,,Registered,2019-04-08T13:15:43.000Z,2019-06-21T08:33:43.000Z,Northern Zone,Arusha,Arusha,Arusha CC,Baraa,Kwa Mrefu,Health Labs - Level IA2 (Dispensary Laboratory),Operating,Private - For Profit,PHL-C/ARS/AUT/066,,-3.372567,36.737808,,1,0,0,0,0
100320-1,Baraa RC,,Registered,2013-08-20T10:24:41.000Z,2019-05-22T08:59:52.000Z,Northern Zone,Arusha,Arusha,Arusha CC,Baraa,Sorenyi,Dispensary,Operating,Private - Faith based organization (FBO),2011,02-03-0107,-3.388826,36.736712,06/09/1997,1,1,0,0,0
112771-1,Baraka,Baraka,Registered,2019-03-07T04:39:34.000Z,2019-05-04T16:12:06.000Z,Central Zone,Dodoma,Dodoma,Dodoma MC,Viwandani,Tofiki,Health Labs - Level IA2 (Dispensary Laboratory),Operating,Private - For Profit,PHL-/DOM/AUT/010,,-6.17782,35.74774,,1,1,0,0,0
112600-2,Baraka,Kwa baraka,Registered,2019-02-28T18:42:57.000Z,2019-05-29T10:30:31.000Z,Southern Highlands Zone,Mbeya,Mbarali,Mbarali DC,Chimala,Lyambogo,Health Labs - Level IA2 (Dispensary Laboratory),Operating,Private - For Profit,PHL-C/MBY/AUT/08,,-8.861252,34.033477,01/07/2014,1,0,0,0,0
113285-1,Baraka,,Registered,2019-03-27T17:29:45.000Z,2019-07-05T08:54:17.000Z,Eastern Zone,Pwani,Kibaha,Kibaha TC,Kongowe,Not set,Health Labs - Level IA2 (Dispensary Laboratory),Operating,Private - For Profit,PHL-C/PWN/AUT/013,,-6.74154,38.93624,,1,0,0,0,0
100322-7,Baraka,Baraka dispensary,Registered,2013-08-20T10:24:42.000Z,2019-04-30T03:05:25.000Z,Northern Zone,Arusha,Karatu,Karatu DC,Karatu,Karatu Mjini,Dispensary,Operating,Private - For Profit,30207,,-3.343897,35.676263,08/08/2006,1,1,0,0,0
100321-9,Baraka,CHEYO,Registered,2013-08-20T10:24:42.000Z,2019-06-02T20:27:27.000Z,Western Zone,Tabora,Igunga,Igunga DC,Choma,Choma,Dispensary,Operating,Private - For Profit,142005,,-4.018755,33.359243,16/06/1992,1,0,0,0,0
110772-1,Baraka Mbezi,Baraka Mbezi,Registered,2015-07-17T08:55:38.000Z,2020-01-24T13:45:26.000Z,Eastern Zone,Dar es Salaam,Ubungo,Ubungo MC,Saranga,Kimara B,Dispensary,Operating,Private - For Profit,71457,,-6.78107,39.12778,22/09/2014,1,0,1,0,0
100323-5,Baraki,Baraki,Registered,2013-08-20T10:24:42.000Z,2018-10-23T18:38:16.000Z,Lake Zone,Mara,Rorya,Rorya DC,Kyang'ombe,Baraki,Dispensary,Operating,Public - LGA,,20-06-0133,-1.38045,33.9261,11/01/1978,0,0,1,0,0
100324-3,Baraki,Baraki,Registered,2013-08-20T10:24:42.000Z,2018-10-23T18:36:04.000Z,Lake Zone,Mara,Rorya,Rorya DC,Kyang'ombe,Baraki,Health Center,Operating,Private - Faith based organization (FBO) - Catholic,,,-1.36842,33.968,,1,1,0,0,0
100325-0,Baranga,Baranga,Registered,2013-08-20T10:24:42.000Z,2019-09-23T06:50:40.000Z,Lake Zone,Mara,Butiama,Butiama DC,Buswahili,Baranga,Dispensary,Operating,Public - LGA,,,-1.68392,34.22873,03/03/2015,0,0,1,0,0
100326-8,Bargish,Bargish,Registered,2013-08-20T10:24:43.000Z,2018-10-23T15:41:10.000Z,Northern Zone,Manyara,Mbulu,Mbulu TC,Bargish,Antsi,Dispensary,Operating,Public - LGA,AR/KIJ/55,,-3.797502,35.552058,,0,0,1,0,0
Not set,Bariadi,DUTWA,Not Registered,2019-05-30T13:12:52.000Z,2020-02-10T14:54:55.000Z,Western Zone,Simiyu,Bariadi,Bariadi DC,Dutwa,Igaganulwa,Hospital - District Hospital,Pending Operation - Under Construction,Public - LGA,,,-2.52512,33.96545,,0,0,0,0,0
100327-6,Bariadi Town Council,Somanda,Registered,2013-08-20T10:24:43.000Z,2019-09-19T09:31:54.000Z,Western Zone,Simiyu,Bariadi,Bariadi TC,Somanda,Somanda,Hospital - District Hospital,Operating,Public - LGA,,,-2.7757,33.99557,01/07/1974,1,1,0,0,1
100328-4,Bariadi-Magereza,Bariadi Magereza,Registered,2013-08-20T10:24:43.000Z,2019-11-12T12:21:12.000Z,Western Zone,Simiyu,Bariadi,Bariadi TC,Somanda,Yoma,Dispensary,Operating,Public - Prisons,,,-2.75329,34.0046,01/07/1972,0,0,0,0,0
113016-0,Bariki,,Registered,2019-03-10T09:55:32.000Z,2019-06-26T07:08:23.000Z,Western Zone,Kigoma,Kasulu,Kasulu TC,Kasulu Mjini,Not set,Health Labs - Level IA2 (Dispensary Laboratory),Closed,Private - For Profit,PHL-C/KGM/AUT/014,,-4.57352,30.09875,,0,0,0,0,0
100330-0,Barikiwa,Barikiwa Dispensary,Registered,2013-08-20T10:24:43.000Z,2019-07-25T22:01:43.000Z,Southern Zone,Lindi,Liwale,Liwale DC,Barikiwa,Barikiwa,Dispensary,Operating,Public - LGA,,08-04-0102,-9.53135,37.83734,02/07/1975,0,0,1,0,0
100331-8,Barjomot,Barjomot,Registered,2013-08-20T10:24:43.000Z,2015-09-14T06:41:25.000Z,Northern Zone,Manyara,Hanang,Hanang DC,Gitting,Barjomot,Dispensary,Operating,Public - LGA,,,-4.38374,35.40241,03/12/2014,0,0,0,1,0
100332-6,Basanza,Basanza,Registered,2013-08-20T10:24:44.000Z,2018-10-23T10:34:58.000Z,Western Zone,Kigoma,Uvinza,Uvinza DC,Uvinza,Basanza,Dispensary,Operating,Public - LGA,,,-4.978927,30.292741,,0,0,1,0,0
Not set,Bashang,Bashang,Not Registered,2015-03-27T10:53:09.000Z,2015-09-14T06:36:44.000Z,Northern Zone,Manyara,Hanang,Hanang DC,Nangwa,Bashang,Dispensary,Pending Operation - Under Construction,Public - LGA,,,-4.56207,35.48509,,0,0,0,0,0
100334-2,Bashay,Bashay Dispensary,Registered,2013-08-20T10:24:44.000Z,2019-11-07T18:56:43.000Z,Northern Zone,Manyara,Mbulu,Mbulu DC,Bashay,Bashay,Dispensary,Operating,Private - Faith based organization (FBO) - Catholic,,,-4.00891,35.31468,07/04/1988,0,0,1,0,0
112013-8,Bashi,,Registered,2018-01-17T09:26:54.000Z,2019-11-28T15:51:09.000Z,Southern Highlands Zone,Katavi,Mpanda,Mpanda MC,Kashaulili,Majengo A,Health Labs - Level IA2 (Dispensary Laboratory),Operating,Private - For Profit,PHL-C/KTV/AUT/06,,-6.45678,38.2145,01/07/2018,0,0,0,0,0
109512-4,Bashnet,Bashnet,Registered,2015-03-27T10:12:58.000Z,2019-09-02T11:01:51.000Z,Northern Zone,Manyara,Babati,Babati DC,Bashnet,Long,Dispensary,Operating,Public - LGA,,21-01-0123,-4.23058,35.42924,01/07/1969,1,0,0,0,0
100336-7,Bashnet,Buma,Registered,2013-08-20T10:24:44.000Z,2019-08-29T14:42:19.000Z,Northern Zone,Manyara,Babati,Babati DC,Bashnet,Bashnet,Hospital - Hospital at District Level,Operating,Private - Faith based organization (FBO),25204,,-4.21978,35.4209,03/10/1998,1,0,0,0,0
100339-1,Basodawish,Bassodowish,Not Registered,2013-08-20T10:24:45.000Z,2019-08-30T05:34:01.000Z,Northern Zone,Arusha,Karatu,Karatu DC,Endamarariek,Basodowish,Dispensary,Operating,Public - LGA,,,-3.4409,35.67453,,0,0,0,0,1
100338-3,Bassodesh,,Registered,2013-08-20T10:24:45.000Z,2019-11-06T13:13:41.000Z,Northern Zone,Manyara,Hanang,Hanang DC,Bassodesh,Bassodesh,Dispensary,Operating,Public - LGA,,,-4.29842,35.1299,01/09/1987,0,0,1,0,0
100340-9,Bassotu Ziwani,Basotu,Registered,2013-08-20T10:24:45.000Z,2015-06-24T08:33:33.000Z,Northern Zone,Manyara,Hanang,Hanang DC,Bassotu,Bassotu,Dispensary,Operating,Public - LGA,,,-4.36285,35.0711,27/09/2007,1,0,0,0,0
111959-3,Baturi,,Registered,2018-01-16T15:18:15.000Z,2019-06-21T08:35:07.000Z,Northern Zone,Arusha,Arusha,Arusha CC,Oloirien,Moivoi,Health Labs - Level IA2 (Dispensary Laboratory),Operating,Private - For Profit,PHL-C/AR/AUT/05,,-3.385786,36.709664,,1,0,0,0,0
100342-5,Baura,,Registered,2013-08-20T10:24:46.000Z,2015-03-31T18:02:37.000Z,Central Zone,Dodoma,Kondoa,Kondoa DC,Kalamba,Baura,Dispensary,Operating,Public - LGA,,,-4.832222,35.889613,,0,0,1,0,0
110825-7,Baylor,Baylor Clinic,Registered,2015-07-22T09:39:35.000Z,2015-08-24T08:16:21.000Z,Lake Zone,Mwanza,Nyamagana,Nyamagana MC,Pamba,Pamba 'A',Clinic - Other Clinic,Operating,Private - For Profit,,,-2.52874,32.9054,,0,0,0,0,0
110738-2,Baylor Pediatric,Baylor Pediatric,Registered,2015-07-15T13:20:17.000Z,2019-05-31T06:17:41.000Z,Southern Highlands Zone,Mbeya,Mbeya,Mbeya CC,Sisimba,Uzunguni A,Clinic - Other Clinic,Operating,Private - NGOs,,12-07-0106,-8.89072,33.43823,,1,1,0,0,0
100343-3,Beatrice,,Registered,2013-08-20T10:24:46.000Z,2015-08-17T07:09:37.000Z,Western Zone,Tabora,Tabora,Tabora MC,Kanyenye,Uhindini,Dispensary,Operating,Private,,,-5.0202,32.80632,,1,0,0,0,0
113206-7,Beda,,Registered,2019-03-27T10:48:38.000Z,2019-06-03T11:30:12.000Z,Western Zone,Tabora,Tabora,Tabora MC,Ng`ambo,Not set,Health Labs - Level IA2 (Dispensary Laboratory),Operating,Private - For Profit,PHL-C/TAB/AUT/023,,-5.039144,32.804558,,0,0,0,0,0
Not set,Belabela,,Not Registered,2019-05-12T11:17:24.000Z,2019-05-12T11:17:24.000Z,Central Zone,Dodoma,Kondoa,Kondoa DC,Kikilo,Berabera,Dispensary,Pending Operation - Under Construction,Public - LGA,,,-4.5598,35.68016,,0,0,0,0,0
100344-1,Beledi,BELEDI,Not Registered,2013-08-20T10:24:46.000Z,2019-05-21T08:52:03.000Z,Western Zone,Shinyanga,Kishapu,Kishapu DC,Lagana,Beledi,Dispensary,Operating,Public - LGA,100344,17-08-0112,-3.91533,33.878,04/04/2009,0,0,1,0,0
